{
"type": "FeatureCollection",
"name": "cherry_cimis",
"crs": { "type": "name", "properties": { "name": "urn:ogc:def:crs:OGC:1.3:CRS84" } },
"features": [
{ "type": "Feature", "properties": { "stid": 2, "name": "FivePoints", "city": "Five Points" }, "geometry": { "type": "Point", "coordinates": [ -120.11291, 36.336222 ] } },
{ "type": "Feature", "properties": { "stid": 5, "name": "Shafter", "city": "Shafter" }, "geometry": { "type": "Point", "coordinates": [ -119.28179, 35.532556 ] } },
{ "type": "Feature", "properties": { "stid": 6, "name": "Davis", "city": "Davis" }, "geometry": { "type": "Point", "coordinates": [ -121.77636, 38.535694 ] } },
{ "type": "Feature", "properties": { "stid": 15, "name": "Stratford", "city": "Stratford" }, "geometry": { "type": "Point", "coordinates": [ -119.85143, 36.157972 ] } },
{ "type": "Feature", "properties": { "stid": 39, "name": "Parlier", "city": "Parlier" }, "geometry": { "type": "Point", "coordinates": [ -119.50404, 36.597444 ] } },
{ "type": "Feature", "properties": { "stid": 47, "name": "Brentwood", "city": "Brentwood" }, "geometry": { "type": "Point", "coordinates": [ -121.6599, 37.928258 ] } },
{ "type": "Feature", "properties": { "stid": 70, "name": "Manteca", "city": "Manteca" }, "geometry": { "type": "Point", "coordinates": [ -121.22319, 37.834822 ] } },
{ "type": "Feature", "properties": { "stid": 71, "name": "Modesto", "city": "Modesto" }, "geometry": { "type": "Point", "coordinates": [ -121.18776, 37.645222 ] } },
{ "type": "Feature", "properties": { "stid": 80, "name": "Fresno State", "city": "Fresno" }, "geometry": { "type": "Point", "coordinates": [ -119.74231, 36.820833 ] } },
{ "type": "Feature", "properties": { "stid": 105, "name": "Westlands", "city": "Tranquility" }, "geometry": { "type": "Point", "coordinates": [ -120.38181, 36.634028 ] } },
{ "type": "Feature", "properties": { "stid": 116, "name": "Salinas North", "city": "Salinas" }, "geometry": { "type": "Point", "coordinates": [ -121.69189, 36.716806 ] } },
{ "type": "Feature", "properties": { "stid": 125, "name": "Arvin-Edison", "city": "Arvin" }, "geometry": { "type": "Point", "coordinates": [ -118.77841, 35.205583 ] } },
{ "type": "Feature", "properties": { "stid": 126, "name": "San Benito", "city": "Hollister" }, "geometry": { "type": "Point", "coordinates": [ -121.36275, 36.854833 ] } },
{ "type": "Feature", "properties": { "stid": 129, "name": "Pajaro", "city": "Pajaro" }, "geometry": { "type": "Point", "coordinates": [ -121.74193, 36.902778 ] } },
{ "type": "Feature", "properties": { "stid": 131, "name": "Fair Oaks", "city": "Fair Oaks" }, "geometry": { "type": "Point", "coordinates": [ -121.21887, 38.649964 ] } },
{ "type": "Feature", "properties": { "stid": 139, "name": "Winters", "city": "Winters" }, "geometry": { "type": "Point", "coordinates": [ -121.97853, 38.501258 ] } },
{ "type": "Feature", "properties": { "stid": 140, "name": "Twitchell Island", "city": "Rio Vista" }, "geometry": { "type": "Point", "coordinates": [ -121.674455, 38.121739 ] } },
{ "type": "Feature", "properties": { "stid": 143, "name": "San Juan Valley", "city": "Hollister" }, "geometry": { "type": "Point", "coordinates": [ -121.46787, 36.822861 ] } },
{ "type": "Feature", "properties": { "stid": 146, "name": "Belridge", "city": "Lost Hills" }, "geometry": { "type": "Point", "coordinates": [ -119.69114, 35.505833 ] } },
{ "type": "Feature", "properties": { "stid": 182, "name": "Delano", "city": "Delano" }, "geometry": { "type": "Point", "coordinates": [ -119.25596, 35.833 ] } },
{ "type": "Feature", "properties": { "stid": 194, "name": "Oakdale", "city": "Oakdale" }, "geometry": { "type": "Point", "coordinates": [ -120.85086, 37.727194 ] } },
{ "type": "Feature", "properties": { "stid": 195, "name": "Auburn", "city": "Auburn" }, "geometry": { "type": "Point", "coordinates": [ -121.10291, 38.887603 ] } },
{ "type": "Feature", "properties": { "stid": 205, "name": "Coalinga", "city": "Coalinga" }, "geometry": { "type": "Point", "coordinates": [ -120.36027, 36.175833 ] } },
{ "type": "Feature", "properties": { "stid": 209, "name": "Watsonville West II", "city": "Watsonville" }, "geometry": { "type": "Point", "coordinates": [ -121.82365, 36.913083 ] } },
{ "type": "Feature", "properties": { "stid": 211, "name": "Gilroy", "city": "Gilroy" }, "geometry": { "type": "Point", "coordinates": [ -121.53704, 37.015026 ] } },
{ "type": "Feature", "properties": { "stid": 212, "name": "Hastings Tract East", "city": "Dixon" }, "geometry": { "type": "Point", "coordinates": [ -121.74111, 38.278056 ] } },
{ "type": "Feature", "properties": { "stid": 214, "name": "Salinas South II", "city": "Salinas" }, "geometry": { "type": "Point", "coordinates": [ -121.537889, 36.625619 ] } },
{ "type": "Feature", "properties": { "stid": 226, "name": "Woodland", "city": "Woodland" }, "geometry": { "type": "Point", "coordinates": [ -121.81172, 38.672722 ] } },
{ "type": "Feature", "properties": { "stid": 229, "name": "Laguna Seca", "city": "Monterey" }, "geometry": { "type": "Point", "coordinates": [ -121.7865, 36.570111 ] } },
{ "type": "Feature", "properties": { "stid": 235, "name": "Verona", "city": "Nicolaus" }, "geometry": { "type": "Point", "coordinates": [ -121.61136, 38.797944 ] } },
{ "type": "Feature", "properties": { "stid": 242, "name": "Staten Island", "city": "Walnut Grove" }, "geometry": { "type": "Point", "coordinates": [ -121.510261, 38.192397 ] } },
{ "type": "Feature", "properties": { "stid": 243, "name": "Ryde", "city": "Walnut Grove" }, "geometry": { "type": "Point", "coordinates": [ -121.555528, 38.249622 ] } },
{ "type": "Feature", "properties": { "stid": 247, "name": "Jersey Island", "city": "Oakley" }, "geometry": { "type": "Point", "coordinates": [ -121.701247, 38.033386 ] } },
{ "type": "Feature", "properties": { "stid": 248, "name": "Holt", "city": "Stockton" }, "geometry": { "type": "Point", "coordinates": [ -121.396661, 37.932072 ] } },
{ "type": "Feature", "properties": { "stid": 249, "name": "Ripon", "city": "Manteca" }, "geometry": { "type": "Point", "coordinates": [ -121.266153, 37.755597 ] } },
{ "type": "Feature", "properties": { "stid": 252, "name": "Soledad II", "city": "Soledad" }, "geometry": { "type": "Point", "coordinates": [ -121.344388, 36.456728 ] } },
{ "type": "Feature", "properties": { "stid": 262, "name": "Linden", "city": "Linden" }, "geometry": { "type": "Point", "coordinates": [ -121.071747, 38.065692 ] } }
]
}
