{
"type": "FeatureCollection",
"name": "cimis_stn",
"crs": { "type": "name", "properties": { "name": "urn:ogc:def:crs:EPSG::3310" } },
"features": [
{ "type": "Feature", "properties": { "stid": 1, "name": "Fresno/F.S.U. USDA", "city": "Fresno", "county": "Fresno", "elev_ft": 340, "connect_date": "1982-06-07", "disconnect_date": "1988-09-25", "stn_intvl": 198892800.0, "active": false }, "geometry": { "type": "Point", "coordinates": [ 23904.96135167616012, -133573.317198244389147 ] } },
{ "type": "Feature", "properties": { "stid": 2, "name": "FivePoints", "city": "Five Points", "county": "Fresno", "elev_ft": 285, "connect_date": "1982-06-07", "disconnect_date": "2050-12-31", "stn_intvl": 2163801600.0, "active": true }, "geometry": { "type": "Point", "coordinates": [ -10122.224188674936158, -186749.816074744332582 ] } },
{ "type": "Feature", "properties": { "stid": 3, "name": "Beach /Santa Cruz CO", "city": "Watsonville", "county": "Santa Cruz", "elev_ft": 10, "connect_date": "1982-05-30", "disconnect_date": "1986-08-25", "stn_intvl": 133747200.0, "active": false }, "geometry": { "type": "Point", "coordinates": [ -159615.737997174903285, -124749.22651057317853 ] } },
{ "type": "Feature", "properties": { "stid": 4, "name": "Webb /Santa Cruz CO", "city": "Watsonville", "county": "Santa Cruz", "elev_ft": 230, "connect_date": "1982-05-30", "disconnect_date": "1988-04-29", "stn_intvl": 186710400.0, "active": false }, "geometry": { "type": "Point", "coordinates": [ -153447.427895384142175, -114642.239519584458321 ] } },
{ "type": "Feature", "properties": { "stid": 5, "name": "Shafter", "city": "Shafter", "county": "Kern", "elev_ft": 360, "connect_date": "1982-06-01", "disconnect_date": "2050-12-31", "stn_intvl": 2164320000.0, "active": true }, "geometry": { "type": "Point", "coordinates": [ 65062.322379607991024, -275799.209380822721869 ] } },
{ "type": "Feature", "properties": { "stid": 6, "name": "Davis", "city": "Davis", "county": "Yolo", "elev_ft": 60, "connect_date": "1982-07-17", "disconnect_date": "2050-12-31", "stn_intvl": 2160345600.0, "active": true }, "geometry": { "type": "Point", "coordinates": [ -154658.420472480880562, 59179.423228865489364 ] } },
{ "type": "Feature", "properties": { "stid": 7, "name": "Firebaugh/Telles", "city": "Firebaugh", "county": "Fresno", "elev_ft": 185, "connect_date": "1982-09-22", "disconnect_date": "2050-12-31", "stn_intvl": 2154556800.0, "active": true }, "geometry": { "type": "Point", "coordinates": [ -52618.084339275570528, -129355.345709777902812 ] } },
{ "type": "Feature", "properties": { "stid": 8, "name": "Gerber", "city": "Gerber", "county": "Tehama", "elev_ft": 250, "connect_date": "1982-09-22", "disconnect_date": "2014-08-14", "stn_intvl": 1006473600.0, "active": false }, "geometry": { "type": "Point", "coordinates": [ -184706.031004321674118, 227461.655357874929905 ] } },
{ "type": "Feature", "properties": { "stid": 9, "name": "Lamont", "city": "LaMont", "county": "Kern", "elev_ft": 406, "connect_date": "1982-09-29", "disconnect_date": "1989-04-10", "stn_intvl": 206064000.0, "active": false }, "geometry": { "type": "Point", "coordinates": [ 100532.276156261170399, -308167.828485801815987 ] } },
{ "type": "Feature", "properties": { "stid": 10, "name": "Bakersfield/Greenlee", "city": "Mettler Station", "county": "Kern", "elev_ft": 400, "connect_date": "1982-10-01", "disconnect_date": "1986-04-16", "stn_intvl": 111715200.0, "active": false }, "geometry": { "type": "Point", "coordinates": [ 83638.635733459319454, -326224.326720647513866 ] } },
{ "type": "Feature", "properties": { "stid": 11, "name": "Bakersfield/Bonanza", "city": "Conner", "county": "Kern", "elev_ft": 290, "connect_date": "1982-09-29", "disconnect_date": "1986-04-17", "stn_intvl": 111974400.0, "active": false }, "geometry": { "type": "Point", "coordinates": [ 74564.994268092035782, -317038.109153650235385 ] } },
{ "type": "Feature", "properties": { "stid": 12, "name": "Durham", "city": "Chico", "county": "Butte", "elev_ft": 130, "connect_date": "1982-10-19", "disconnect_date": "2050-12-31", "stn_intvl": 2152224000.0, "active": true }, "geometry": { "type": "Point", "coordinates": [ -156548.543423139693914, 178484.158914413768798 ] } },
{ "type": "Feature", "properties": { "stid": 13, "name": "Camino", "city": "Placerville", "county": "El Dorado", "elev_ft": 2780, "connect_date": "1982-10-19", "disconnect_date": "2050-12-31", "stn_intvl": 2152224000.0, "active": true }, "geometry": { "type": "Point", "coordinates": [ -63686.814599436343997, 82147.029716113582253 ] } },
{ "type": "Feature", "properties": { "stid": 14, "name": "Orland", "city": "Orland", "county": "Glenn", "elev_ft": 235, "connect_date": "1982-10-30", "disconnect_date": "1987-04-21", "stn_intvl": 141177600.0, "active": false }, "geometry": { "type": "Point", "coordinates": [ -185982.453638658771524, 193641.458562646061182 ] } },
{ "type": "Feature", "properties": { "stid": 15, "name": "Stratford", "city": "Stratford", "county": "Kings", "elev_ft": 193, "connect_date": "1982-10-29", "disconnect_date": "2050-12-31", "stn_intvl": 2151360000.0, "active": true }, "geometry": { "type": "Point", "coordinates": [ 13350.130699095812815, -206552.950079458765686 ] } },
{ "type": "Feature", "properties": { "stid": 16, "name": "San Juan", "city": "Watsonville", "county": "Monterey", "elev_ft": 44, "connect_date": "1982-10-23", "disconnect_date": "1995-08-24", "stn_intvl": 405043200.0, "active": false }, "geometry": { "type": "Point", "coordinates": [ -151533.875952063448494, -122211.745391718577594 ] } },
{ "type": "Feature", "properties": { "stid": 17, "name": "El Centro", "city": "Meloland", "county": "Imperial", "elev_ft": -86, "connect_date": "1982-11-08", "disconnect_date": "1987-05-27", "stn_intvl": 143510400.0, "active": false }, "geometry": { "type": "Point", "coordinates": [ 426480.203004986804444, -563799.574298282153904 ] } },
{ "type": "Feature", "properties": { "stid": 18, "name": "Westmorland", "city": "Westmorland", "county": "Imperial", "elev_ft": -195, "connect_date": "1982-11-11", "disconnect_date": "1986-04-09", "stn_intvl": 107568000.0, "active": false }, "geometry": { "type": "Point", "coordinates": [ 409794.908426085952669, -538955.91600811528042 ] } },
{ "type": "Feature", "properties": { "stid": 19, "name": "Castroville", "city": "Castroville", "county": "Monterey", "elev_ft": 9, "connect_date": "1982-11-18", "disconnect_date": "2019-11-20", "stn_intvl": 1167782400.0, "active": false }, "geometry": { "type": "Point", "coordinates": [ -158097.109397228254238, -137271.845956384204328 ] } },
{ "type": "Feature", "properties": { "stid": 20, "name": "Corcoran", "city": "Corcoran", "county": "Kings", "elev_ft": 190, "connect_date": "1982-11-22", "disconnect_date": "1986-04-09", "stn_intvl": 106617600.0, "active": false }, "geometry": { "type": "Point", "coordinates": [ 38447.741072736360366, -219554.244291334412992 ] } },
{ "type": "Feature", "properties": { "stid": 21, "name": "Kettleman", "city": "Kettleman City", "county": "Kings", "elev_ft": 340, "connect_date": "1982-11-19", "disconnect_date": "2017-09-01", "stn_intvl": 1097712000.0, "active": false }, "geometry": { "type": "Point", "coordinates": [ 9479.773078289119439, -238804.371049391105771 ] } },
{ "type": "Feature", "properties": { "stid": 22, "name": "Caruthers", "city": "Laton", "county": "Kings", "elev_ft": 238, "connect_date": "1982-11-18", "disconnect_date": "1988-06-06", "stn_intvl": 175132800.0, "active": false }, "geometry": { "type": "Point", "coordinates": [ 19757.211480395122635, -169612.445981048978865 ] } },
{ "type": "Feature", "properties": { "stid": 23, "name": "King City", "city": "King City", "county": "Monterey", "elev_ft": 300, "connect_date": "1982-11-19", "disconnect_date": "1985-12-23", "stn_intvl": 97632000.0, "active": false }, "geometry": { "type": "Point", "coordinates": [ -100366.760221750533674, -204141.709389219991863 ] } },
{ "type": "Feature", "properties": { "stid": 24, "name": "Thermal", "city": "Thermal", "county": "Riverside", "elev_ft": -120, "connect_date": "1982-11-22", "disconnect_date": "1986-03-03", "stn_intvl": 103420800.0, "active": false }, "geometry": { "type": "Point", "coordinates": [ 360774.12704808980925, -479677.771414093673229 ] } },
{ "type": "Feature", "properties": { "stid": 25, "name": "Rancho Mirage", "city": "Rancho Mirage", "county": "Riverside", "elev_ft": 240, "connect_date": "1982-11-22", "disconnect_date": "1985-11-20", "stn_intvl": 94521600.0, "active": false }, "geometry": { "type": "Point", "coordinates": [ 331285.003494720964227, -466043.274303494952619 ] } },
{ "type": "Feature", "properties": { "stid": 26, "name": "Lost Hills", "city": "Lost Hills", "county": "Kern", "elev_ft": 410, "connect_date": "1982-11-29", "disconnect_date": "1986-08-13", "stn_intvl": 116899200.0, "active": false }, "geometry": { "type": "Point", "coordinates": [ 28118.260882172759011, -279029.529494342859834 ] } },
{ "type": "Feature", "properties": { "stid": 27, "name": "Zamora", "city": "Woodland", "county": "Yolo", "elev_ft": 50, "connect_date": "1982-12-05", "disconnect_date": "2006-01-20", "stn_intvl": 729820800.0, "active": false }, "geometry": { "type": "Point", "coordinates": [ -165467.440517006238224, 89747.820188452024013 ] } },
{ "type": "Feature", "properties": { "stid": 28, "name": "Soledad", "city": "Soledad", "county": "Monterey", "elev_ft": 170, "connect_date": "1983-01-04", "disconnect_date": "1987-02-11", "stn_intvl": 129513600.0, "active": false }, "geometry": { "type": "Point", "coordinates": [ -122113.820075704876217, -173510.986028405837715 ] } },
{ "type": "Feature", "properties": { "stid": 29, "name": "Cantua Creek", "city": "Cantua Creek", "county": "Fresno", "elev_ft": 275, "connect_date": "1983-01-02", "disconnect_date": "1985-07-23", "stn_intvl": 80611200.0, "active": false }, "geometry": { "type": "Point", "coordinates": [ -28122.657669233587512, -166686.968015065882355 ] } },
{ "type": "Feature", "properties": { "stid": 30, "name": "Nicolaus", "city": "Nicolaus", "county": "Sutter", "elev_ft": 32, "connect_date": "1983-01-03", "disconnect_date": "2011-12-29", "stn_intvl": 914716800.0, "active": false }, "geometry": { "type": "Point", "coordinates": [ -134004.00974889259669, 96049.605765318498015 ] } },
{ "type": "Feature", "properties": { "stid": 31, "name": "McFarland/Kern Farms", "city": "McFarland", "county": "Kern", "elev_ft": 480, "connect_date": "1983-01-11", "disconnect_date": "1993-03-08", "stn_intvl": 320457600.0, "active": false }, "geometry": { "type": "Point", "coordinates": [ 76510.483069697525934, -256801.708065368700773 ] } },
{ "type": "Feature", "properties": { "stid": 32, "name": "Colusa", "city": "Colusa", "county": "Colusa", "elev_ft": 55, "connect_date": "1983-01-13", "disconnect_date": "2016-08-12", "stn_intvl": 1059696000.0, "active": false }, "geometry": { "type": "Point", "coordinates": [ -174645.164066037046723, 136417.770152223762125 ] } },
{ "type": "Feature", "properties": { "stid": 33, "name": "Visalia", "city": "Visalia", "county": "Tulare", "elev_ft": 350, "connect_date": "1983-01-05", "disconnect_date": "2007-03-01", "stn_intvl": 762134400.0, "active": false }, "geometry": { "type": "Point", "coordinates": [ 69551.009701584596769, -190379.266279100440443 ] } },
{ "type": "Feature", "properties": { "stid": 34, "name": "Rancho California", "city": "Rancho California", "county": "Riverside", "elev_ft": 1820, "connect_date": "1983-01-21", "disconnect_date": "1986-11-25", "stn_intvl": 121305600.0, "active": false }, "geometry": { "type": "Point", "coordinates": [ 260443.507584896113258, -499026.675060207489878 ] } },
{ "type": "Feature", "properties": { "stid": 35, "name": "Bishop", "city": "Bishop", "county": "Inyo", "elev_ft": 4170, "connect_date": "1983-02-04", "disconnect_date": "2050-12-31", "stn_intvl": 2142892800.0, "active": true }, "geometry": { "type": "Point", "coordinates": [ 141024.472927776019787, -71944.63811603654176 ] } },
{ "type": "Feature", "properties": { "stid": 36, "name": "Blythe", "city": "Blythe", "county": "Riverside", "elev_ft": 270, "connect_date": "1983-03-13", "disconnect_date": "1988-08-12", "stn_intvl": 170985600.0, "active": false }, "geometry": { "type": "Point", "coordinates": [ 504673.139566704281606, -469970.590451078955084 ] } },
{ "type": "Feature", "properties": { "stid": 37, "name": "USDA Salinas", "city": "Salinas", "county": "Monterey", "elev_ft": 120, "connect_date": "1983-04-11", "disconnect_date": "1992-07-27", "stn_intvl": 293328000.0, "active": false }, "geometry": { "type": "Point", "coordinates": [ -138011.087641500198515, -154031.935343049932271 ] } },
{ "type": "Feature", "properties": { "stid": 38, "name": "Santa Maria", "city": "Santa Maria", "county": "Santa Barbara", "elev_ft": 270, "connect_date": "1983-05-03", "disconnect_date": "1999-04-27", "stn_intvl": 504403200.0, "active": false }, "geometry": { "type": "Point", "coordinates": [ -35062.169191252134624, -340175.005725763738155 ] } },
{ "type": "Feature", "properties": { "stid": 39, "name": "Parlier", "city": "Parlier", "county": "Fresno", "elev_ft": 337, "connect_date": "1983-05-23", "disconnect_date": "2050-12-31", "stn_intvl": 2133561600.0, "active": true }, "geometry": { "type": "Point", "coordinates": [ 44310.067799732823914, -157609.44634888228029 ] } },
{ "type": "Feature", "properties": { "stid": 40, "name": "Mendota/MuriettaUSDA", "city": "Mendota", "county": "Fresno", "elev_ft": 187, "connect_date": "1983-06-14", "disconnect_date": "1992-04-15", "stn_intvl": 278899200.0, "active": false }, "geometry": { "type": "Point", "coordinates": [ -34556.091073064031661, -148108.970587013754994 ] } },
{ "type": "Feature", "properties": { "stid": 41, "name": "Calipatria/Mulberry", "city": "Calipatria", "county": "Imperial", "elev_ft": -110, "connect_date": "1983-07-17", "disconnect_date": "2050-12-31", "stn_intvl": 2128809600.0, "active": true }, "geometry": { "type": "Point", "coordinates": [ 428468.527442925260402, -541900.084400513209403 ] } },
{ "type": "Feature", "properties": { "stid": 42, "name": "Lodi", "city": "Lodi", "county": "San Joaquin", "elev_ft": 23, "connect_date": "1983-10-16", "disconnect_date": "2001-01-18", "stn_intvl": 544665600.0, "active": false }, "geometry": { "type": "Point", "coordinates": [ -117874.446670083445497, 11184.013672584667802 ] } },
{ "type": "Feature", "properties": { "stid": 43, "name": "McArthur", "city": "Glenburn", "county": "Shasta", "elev_ft": 3310, "connect_date": "1983-10-31", "disconnect_date": "2050-12-31", "stn_intvl": 2119651200.0, "active": true }, "geometry": { "type": "Point", "coordinates": [ -122457.569879001195659, 339518.866439833305776 ] } },
{ "type": "Feature", "properties": { "stid": 44, "name": "U.C. Riverside", "city": "Riverside", "county": "Riverside", "elev_ft": 1020, "connect_date": "1985-06-02", "disconnect_date": "2050-12-31", "stn_intvl": 2069539200.0, "active": true }, "geometry": { "type": "Point", "coordinates": [ 246099.395472059695749, -446599.118892882950604 ] } },
{ "type": "Feature", "properties": { "stid": 45, "name": "San Diego", "city": "San Diego", "county": "San Diego", "elev_ft": 370, "connect_date": "1985-06-09", "disconnect_date": "1989-04-27", "stn_intvl": 122515200.0, "active": false }, "geometry": { "type": "Point", "coordinates": [ 268679.283697121252771, -576594.112436295021325 ] } },
{ "type": "Feature", "properties": { "stid": 46, "name": "MacDoel", "city": "MacDoel", "county": "Siskiyou", "elev_ft": 4254, "connect_date": "1985-11-11", "disconnect_date": "1986-06-11", "stn_intvl": 18316800.0, "active": false }, "geometry": { "type": "Point", "coordinates": [ -171792.776860297453823, 421261.721123699098825 ] } },
{ "type": "Feature", "properties": { "stid": 47, "name": "Brentwood", "city": "Brentwood", "county": "Contra Costa", "elev_ft": 45, "connect_date": "1985-11-18", "disconnect_date": "2050-12-31", "stn_intvl": 2054937600.0, "active": true }, "geometry": { "type": "Point", "coordinates": [ -145702.091005734837381, -8519.118854803498834 ] } },
{ "type": "Feature", "properties": { "stid": 48, "name": "Tulelake", "city": "Tulelake", "county": "Siskiyou", "elev_ft": 4042, "connect_date": "1986-02-03", "disconnect_date": "1993-09-30", "stn_intvl": 241574400.0, "active": false }, "geometry": { "type": "Point", "coordinates": [ -118421.063432493960136, 443689.484981381334364 ] } },
{ "type": "Feature", "properties": { "stid": 49, "name": "Oceanside", "city": "Oceanside", "county": "San Diego", "elev_ft": 50, "connect_date": "1986-03-11", "disconnect_date": "2003-10-29", "stn_intvl": 556502400.0, "active": false }, "geometry": { "type": "Point", "coordinates": [ 249916.360761046467815, -525142.840235755778849 ] } },
{ "type": "Feature", "properties": { "stid": 50, "name": "Thermal", "city": "Thermal", "county": "Riverside", "elev_ft": -30, "connect_date": "1986-07-22", "disconnect_date": "1999-01-11", "stn_intvl": 393638400.0, "active": false }, "geometry": { "type": "Point", "coordinates": [ 348675.727394103945699, -478470.567060473840684 ] } },
{ "type": "Feature", "properties": { "stid": 51, "name": "Healdsburg", "city": "Healdsburg", "county": "Sonoma", "elev_ft": 180, "connect_date": "1986-08-24", "disconnect_date": "1994-03-28", "stn_intvl": 239587200.0, "active": false }, "geometry": { "type": "Point", "coordinates": [ -249380.875928569410462, 75534.121137715876102 ] } },
{ "type": "Feature", "properties": { "stid": 52, "name": "San Luis Obispo", "city": "San Luis Obispo", "county": "San Luis Obispo", "elev_ft": 330, "connect_date": "1986-04-02", "disconnect_date": "2050-12-31", "stn_intvl": 2043273600.0, "active": true }, "geometry": { "type": "Point", "coordinates": [ -60126.512642035209865, -301060.610390005167574 ] } },
{ "type": "Feature", "properties": { "stid": 53, "name": "Greenfield", "city": "Greenfield", "county": "Monterey", "elev_ft": 270, "connect_date": "1986-10-10", "disconnect_date": "1991-10-23", "stn_intvl": 158889600.0, "active": false }, "geometry": { "type": "Point", "coordinates": [ -112672.442777541917167, -185465.644504018127918 ] } },
{ "type": "Feature", "properties": { "stid": 54, "name": "Blackwells Corner", "city": "Blackwells Corner", "county": "Kern", "elev_ft": 705, "connect_date": "1986-10-19", "disconnect_date": "2021-10-18", "stn_intvl": 1104451200.0, "active": false }, "geometry": { "type": "Point", "coordinates": [ 3681.436221202755405, -263014.600908856838942 ] } },
{ "type": "Feature", "properties": { "stid": 55, "name": "Palm Desert", "city": "Palm Desert", "county": "Riverside", "elev_ft": 200, "connect_date": "1987-05-26", "disconnect_date": "1994-04-11", "stn_intvl": 217036800.0, "active": false }, "geometry": { "type": "Point", "coordinates": [ 335260.804697497515008, -469652.929313723929226 ] } },
{ "type": "Feature", "properties": { "stid": 56, "name": "Los Banos", "city": "Los Banos", "county": "Merced", "elev_ft": 95, "connect_date": "1988-06-28", "disconnect_date": "2022-09-14", "stn_intvl": 1079654400.0, "active": false }, "geometry": { "type": "Point", "coordinates": [ -66913.296110704162857, -101968.31502869958058 ] } },
{ "type": "Feature", "properties": { "stid": 57, "name": "Buntingville", "city": "Susanville", "county": "Lassen", "elev_ft": 4005, "connect_date": "1986-06-22", "disconnect_date": "2021-05-12", "stn_intvl": 1100995200.0, "active": false }, "geometry": { "type": "Point", "coordinates": [ -36891.518862656776037, 252732.503412852995098 ] } },
{ "type": "Feature", "properties": { "stid": 58, "name": "Santa Paula", "city": "Santa Paula", "county": "Ventura", "elev_ft": 175, "connect_date": "1987-07-30", "disconnect_date": "1991-02-15", "stn_intvl": 111974400.0, "active": false }, "geometry": { "type": "Point", "coordinates": [ 81088.962791973593994, -412323.083658683113754 ] } },
{ "type": "Feature", "properties": { "stid": 59, "name": "Tehachapi", "city": "Tehachapi", "county": "Kern", "elev_ft": 4110, "connect_date": "1986-07-29", "disconnect_date": "1990-08-23", "stn_intvl": 128390400.0, "active": false }, "geometry": { "type": "Point", "coordinates": [ 142205.784522236208431, -321340.403959547635168 ] } },
{ "type": "Feature", "properties": { "stid": 60, "name": "Barstow", "city": "Barstow", "county": "San Bernardino", "elev_ft": 2180, "connect_date": "1986-11-20", "disconnect_date": "1992-02-20", "stn_intvl": 165715200.0, "active": false }, "geometry": { "type": "Point", "coordinates": [ 263438.974575862579513, -341912.080173709429801 ] } },
{ "type": "Feature", "properties": { "stid": 61, "name": "Orland", "city": "Orland", "county": "Glenn", "elev_ft": 198, "connect_date": "1987-05-13", "disconnect_date": "2010-05-26", "stn_intvl": 726969600.0, "active": false }, "geometry": { "type": "Point", "coordinates": [ -184571.446751284878701, 188316.741368890739977 ] } },
{ "type": "Feature", "properties": { "stid": 62, "name": "Temecula", "city": "Rancho California", "county": "Riverside", "elev_ft": 1420, "connect_date": "1986-11-25", "disconnect_date": "2024-12-02", "stn_intvl": 1199836800.0, "active": false }, "geometry": { "type": "Point", "coordinates": [ 257693.179875874600839, -499325.016116699203849 ] } },
{ "type": "Feature", "properties": { "stid": 63, "name": "Novato", "city": "Novato", "county": "Marin", "elev_ft": 25, "connect_date": "1986-07-01", "disconnect_date": "2002-01-18", "stn_intvl": 490752000.0, "active": false }, "geometry": { "type": "Point", "coordinates": [ -222694.579370195366209, 14701.688530482817441 ] } },
{ "type": "Feature", "properties": { "stid": 64, "name": "Santa Ynez", "city": "Santa Ynez", "county": "Santa Barbara", "elev_ft": 490, "connect_date": "1986-11-21", "disconnect_date": "2050-12-31", "stn_intvl": 2023142400.0, "active": true }, "geometry": { "type": "Point", "coordinates": [ -7266.490947581460205, -381460.278140660841018 ] } },
{ "type": "Feature", "properties": { "stid": 65, "name": "Walnut Creek", "city": "Walnut Creek", "county": "Contra Costa", "elev_ft": 440, "connect_date": "1987-07-22", "disconnect_date": "2002-03-08", "stn_intvl": 461635200.0, "active": false }, "geometry": { "type": "Point", "coordinates": [ -182804.346653260319727, -9328.534149141982198 ] } },
{ "type": "Feature", "properties": { "stid": 66, "name": "San Diego", "city": "San Diego", "county": "San Diego", "elev_ft": 370, "connect_date": "1989-04-27", "disconnect_date": "2001-12-19", "stn_intvl": 399081600.0, "active": false }, "geometry": { "type": "Point", "coordinates": [ 268911.197653966431972, -582527.107161603868008 ] } },
{ "type": "Feature", "properties": { "stid": 67, "name": "Goleta", "city": "Santa Barbara", "county": "Santa Barbara", "elev_ft": 30, "connect_date": "1988-02-17", "disconnect_date": "1993-04-07", "stn_intvl": 162086400.0, "active": false }, "geometry": { "type": "Point", "coordinates": [ 14802.616271848462929, -398200.210323647595942 ] } },
{ "type": "Feature", "properties": { "stid": 68, "name": "Seeley", "city": "Seeley", "county": "Imperial", "elev_ft": 40, "connect_date": "1987-05-29", "disconnect_date": "2025-03-27", "stn_intvl": 1193788800.0, "active": false }, "geometry": { "type": "Point", "coordinates": [ 400345.713732197182253, -574641.47493238793686 ] } },
{ "type": "Feature", "properties": { "stid": 69, "name": "San Jose", "city": "San Jose", "county": "Santa Clara", "elev_ft": 125, "connect_date": "1987-06-08", "disconnect_date": "2002-11-22", "stn_intvl": 487814400.0, "active": false }, "geometry": { "type": "Point", "coordinates": [ -172700.560169176402269, -74946.087448968552053 ] } },
{ "type": "Feature", "properties": { "stid": 70, "name": "Manteca", "city": "Manteca", "county": "San Joaquin", "elev_ft": 33, "connect_date": "1987-11-12", "disconnect_date": "2050-12-31", "stn_intvl": 1992384000.0, "active": true }, "geometry": { "type": "Point", "coordinates": [ -107505.234091598031227, -19488.104638861957937 ] } },
{ "type": "Feature", "properties": { "stid": 71, "name": "Modesto", "city": "Modesto", "county": "Stanislaus", "elev_ft": 35, "connect_date": "1987-06-25", "disconnect_date": "2050-12-31", "stn_intvl": 2004480000.0, "active": true }, "geometry": { "type": "Point", "coordinates": [ -104655.531550089304801, -40603.224284521769732 ] } },
{ "type": "Feature", "properties": { "stid": 72, "name": "Palo Verde", "city": "Palo Verde", "county": "Imperial", "elev_ft": 230, "connect_date": "1987-09-08", "disconnect_date": "2000-12-20", "stn_intvl": 419212800.0, "active": false }, "geometry": { "type": "Point", "coordinates": [ 491087.524874315713532, -500411.069288547150791 ] } },
{ "type": "Feature", "properties": { "stid": 73, "name": "Hollywood Hills", "city": "Burbank", "county": "Los Angeles", "elev_ft": 560, "connect_date": "1988-03-04", "disconnect_date": "1993-09-14", "stn_intvl": 174528000.0, "active": false }, "geometry": { "type": "Point", "coordinates": [ 155113.619671547639882, -428459.288545410148799 ] } },
{ "type": "Feature", "properties": { "stid": 74, "name": "Escondido", "city": "Escondido", "county": "San Diego", "elev_ft": 450, "connect_date": "1988-04-26", "disconnect_date": "1998-12-24", "stn_intvl": 336441600.0, "active": false }, "geometry": { "type": "Point", "coordinates": [ 282064.206972873420455, -542560.653090913780034 ] } },
{ "type": "Feature", "properties": { "stid": 75, "name": "Irvine", "city": "Irvine", "county": "Orange", "elev_ft": 410, "connect_date": "1987-10-07", "disconnect_date": "2050-12-31", "stn_intvl": 1995494400.0, "active": true }, "geometry": { "type": "Point", "coordinates": [ 211338.434204712015344, -478178.737514558713883 ] } },
{ "type": "Feature", "properties": { "stid": 76, "name": "Betteravia", "city": "Guadalupe", "county": "Santa Barbara", "elev_ft": 160, "connect_date": "1987-12-18", "disconnect_date": "1993-07-01", "stn_intvl": 174700800.0, "active": false }, "geometry": { "type": "Point", "coordinates": [ -46716.962616754244664, -343512.342112867161632 ] } },
{ "type": "Feature", "properties": { "stid": 77, "name": "Oakville", "city": "Napa", "county": "Napa", "elev_ft": 190, "connect_date": "1989-03-01", "disconnect_date": "2050-12-31", "stn_intvl": 1951344000.0, "active": true }, "geometry": { "type": "Point", "coordinates": [ -210137.074475238478044, 48483.177998720202595 ] } },
{ "type": "Feature", "properties": { "stid": 78, "name": "Pomona", "city": "Pomona", "county": "Los Angeles", "elev_ft": 730, "connect_date": "1989-03-14", "disconnect_date": "2050-12-31", "stn_intvl": 1950220800.0, "active": true }, "geometry": { "type": "Point", "coordinates": [ 201876.362289119366324, -437561.366530957166106 ] } },
{ "type": "Feature", "properties": { "stid": 79, "name": "Angwin", "city": "St. Helena", "county": "Napa", "elev_ft": 1720, "connect_date": "1989-05-11", "disconnect_date": "1996-12-27", "stn_intvl": 240796800.0, "active": false }, "geometry": { "type": "Point", "coordinates": [ -210792.64970666251611, 62595.92661890713498 ] } },
{ "type": "Feature", "properties": { "stid": 80, "name": "Fresno State", "city": "Fresno", "county": "Fresno", "elev_ft": 339, "connect_date": "1988-10-03", "disconnect_date": "2050-12-31", "stn_intvl": 1964217600.0, "active": true }, "geometry": { "type": "Point", "coordinates": [ 22955.138154643511371, -132865.824789163190871 ] } },
{ "type": "Feature", "properties": { "stid": 81, "name": "Shenandoah Valley", "city": "Plymouth", "county": "Amador", "elev_ft": 1550, "connect_date": "1990-05-11", "disconnect_date": "2000-05-17", "stn_intvl": 316137600.0, "active": false }, "geometry": { "type": "Point", "coordinates": [ -70108.781768511908012, 56583.445359532721341 ] } },
{ "type": "Feature", "properties": { "stid": 82, "name": "Claremont", "city": "Claremont", "county": "Los Angeles", "elev_ft": 1620, "connect_date": "1989-04-13", "disconnect_date": "2007-09-26", "stn_intvl": 582336000.0, "active": false }, "geometry": { "type": "Point", "coordinates": [ 212473.036800983245485, -429164.313230116385967 ] } },
{ "type": "Feature", "properties": { "stid": 83, "name": "Santa Rosa", "city": "Santa Rosa", "county": "Sonoma", "elev_ft": 80, "connect_date": "1990-01-01", "disconnect_date": "2050-12-31", "stn_intvl": 1924905600.0, "active": true }, "geometry": { "type": "Point", "coordinates": [ -244187.907086723018438, 46647.283739716280252 ] } },
{ "type": "Feature", "properties": { "stid": 84, "name": "Browns Valley", "city": "Marysville", "county": "Yuba", "elev_ft": 940, "connect_date": "1989-04-13", "disconnect_date": "2050-12-31", "stn_intvl": 1947628800.0, "active": true }, "geometry": { "type": "Point", "coordinates": [ -113445.893408805291983, 138196.092376109678298 ] } },
{ "type": "Feature", "properties": { "stid": 85, "name": "Hopland FS", "city": "Hopland", "county": "Mendocino", "elev_ft": 1160, "connect_date": "1989-09-23", "disconnect_date": "2016-04-25", "stn_intvl": 839030400.0, "active": false }, "geometry": { "type": "Point", "coordinates": [ -266437.812770331569482, 114417.683141760062426 ] } },
{ "type": "Feature", "properties": { "stid": 86, "name": "Lindcove", "city": "Lindcove", "county": "Tulare", "elev_ft": 480, "connect_date": "1989-05-31", "disconnect_date": "2020-12-03", "stn_intvl": 994377600.0, "active": false }, "geometry": { "type": "Point", "coordinates": [ 84299.830807345220819, -183639.687126084696501 ] } },
{ "type": "Feature", "properties": { "stid": 87, "name": "Meloland", "city": "El Centro", "county": "Imperial", "elev_ft": -50, "connect_date": "1989-12-12", "disconnect_date": "2050-12-31", "stn_intvl": 1926633600.0, "active": true }, "geometry": { "type": "Point", "coordinates": [ 426887.813952795404475, -568238.266517559066415 ] } },
{ "type": "Feature", "properties": { "stid": 88, "name": "Cuyama", "city": "Cuyama", "county": "Santa Barbara", "elev_ft": 2290, "connect_date": "1989-05-20", "disconnect_date": "2050-12-31", "stn_intvl": 1944432000.0, "active": true }, "geometry": { "type": "Point", "coordinates": [ 29775.977963820459991, -341518.133907989133149 ] } },
{ "type": "Feature", "properties": { "stid": 89, "name": "Salinas South", "city": "Salinas", "county": "Monterey", "elev_ft": 120, "connect_date": "1992-09-05", "disconnect_date": "2012-09-25", "stn_intvl": 632880000.0, "active": false }, "geometry": { "type": "Point", "coordinates": [ -136603.936247949081007, -155289.90540019934997 ] } },
{ "type": "Feature", "properties": { "stid": 90, "name": "Alturas", "city": "Alturas", "county": "Modoc", "elev_ft": 4405, "connect_date": "1989-04-23", "disconnect_date": "2050-12-31", "stn_intvl": 1946764800.0, "active": true }, "geometry": { "type": "Point", "coordinates": [ -40187.068604227104515, 380229.537636732682586 ] } },
{ "type": "Feature", "properties": { "stid": 91, "name": "Tulelake FS", "city": "Tulelake", "county": "Siskiyou", "elev_ft": 4035, "connect_date": "1989-04-12", "disconnect_date": "2035-12-31", "stn_intvl": 1474329600.0, "active": true }, "geometry": { "type": "Point", "coordinates": [ -122290.65032683989557, 438818.79118971619755 ] } },
{ "type": "Feature", "properties": { "stid": 92, "name": "Kesterson", "city": "Gustine", "county": "Merced", "elev_ft": 75, "connect_date": "1989-10-13", "disconnect_date": "2021-10-11", "stn_intvl": 1009670400.0, "active": false }, "geometry": { "type": "Point", "coordinates": [ -78038.344374115753453, -86846.911580889485776 ] } },
{ "type": "Feature", "properties": { "stid": 93, "name": "Lamont", "city": "Lamont", "county": "Kern", "elev_ft": 382, "connect_date": "1990-02-04", "disconnect_date": "1994-10-03", "stn_intvl": 147052800.0, "active": false }, "geometry": { "type": "Point", "coordinates": [ 97364.213788091830793, -302805.406647269614041 ] } },
{ "type": "Feature", "properties": { "stid": 94, "name": "Goleta Foothills", "city": "Goleta", "county": "Santa Barbara", "elev_ft": 640, "connect_date": "1990-07-07", "disconnect_date": "2016-07-18", "stn_intvl": 821491200.0, "active": false }, "geometry": { "type": "Point", "coordinates": [ 12003.514514015407258, -393864.172416266519576 ] } },
{ "type": "Feature", "properties": { "stid": 95, "name": "Watsonville", "city": "Watsonville", "county": "Santa Cruz", "elev_ft": 100, "connect_date": "1989-09-13", "disconnect_date": "1995-07-24", "stn_intvl": 184896000.0, "active": false }, "geometry": { "type": "Point", "coordinates": [ -160988.712284367647953, -124105.589342672843486 ] } },
{ "type": "Feature", "properties": { "stid": 96, "name": "Woodside", "city": "Woodside", "county": "San Mateo", "elev_ft": 560, "connect_date": "1990-10-31", "disconnect_date": "1994-01-24", "stn_intvl": 102038400.0, "active": false }, "geometry": { "type": "Point", "coordinates": [ -201542.718913795397384, -60128.363954091910273 ] } },
{ "type": "Feature", "properties": { "stid": 97, "name": "Port Hueneme", "city": "Port Hueneme", "county": "Ventura", "elev_ft": 18, "connect_date": "1991-02-16", "disconnect_date": "2000-07-31", "stn_intvl": 298339200.0, "active": false }, "geometry": { "type": "Point", "coordinates": [ 73744.703956604440464, -426627.509353925473988 ] } },
{ "type": "Feature", "properties": { "stid": 98, "name": "Ramona", "city": "Ramona", "county": "San Diego", "elev_ft": 1340, "connect_date": "1991-04-20", "disconnect_date": "1998-05-28", "stn_intvl": 224208000.0, "active": false }, "geometry": { "type": "Point", "coordinates": [ 286204.976171782764141, -546923.553928215522319 ] } },
{ "type": "Feature", "properties": { "stid": 99, "name": "Santa Monica", "city": "Santa Monica", "county": "Los Angeles", "elev_ft": 340, "connect_date": "1992-12-11", "disconnect_date": "2050-05-08", "stn_intvl": 1811548800.0, "active": true }, "geometry": { "type": "Point", "coordinates": [ 140627.179061789560365, -440122.151789773721248 ] } },
{ "type": "Feature", "properties": { "stid": 100, "name": "Fremont", "city": "Fremont", "county": "Alameda", "elev_ft": 40, "connect_date": "1991-08-29", "disconnect_date": "2000-06-19", "stn_intvl": 277948800.0, "active": false }, "geometry": { "type": "Point", "coordinates": [ -173634.242971155035775, -52726.708333888556808 ] } },
{ "type": "Feature", "properties": { "stid": 101, "name": "Piru", "city": "Piru", "county": "Ventura", "elev_ft": 640, "connect_date": "1991-08-27", "disconnect_date": "2005-02-20", "stn_intvl": 425606400.0, "active": false }, "geometry": { "type": "Point", "coordinates": [ 111353.645300196803873, -403851.450375362765044 ] } },
{ "type": "Feature", "properties": { "stid": 102, "name": "El Dorado", "city": "Long Beach", "county": "Los Angeles", "elev_ft": 17, "connect_date": "1990-10-24", "disconnect_date": "1999-10-20", "stn_intvl": 283651200.0, "active": false }, "geometry": { "type": "Point", "coordinates": [ 176535.830113647447433, -466882.352824699599296 ] } },
{ "type": "Feature", "properties": { "stid": 103, "name": "Windsor", "city": "Windsor", "county": "Sonoma", "elev_ft": 92, "connect_date": "1990-12-14", "disconnect_date": "2050-12-31", "stn_intvl": 1894924800.0, "active": true }, "geometry": { "type": "Point", "coordinates": [ -244987.46767865435686, 60360.867267991416156 ] } },
{ "type": "Feature", "properties": { "stid": 104, "name": "De Laveaga", "city": "Santa Cruz", "county": "Santa Cruz", "elev_ft": 300, "connect_date": "1990-09-28", "disconnect_date": "2050-12-31", "stn_intvl": 1901577600.0, "active": true }, "geometry": { "type": "Point", "coordinates": [ -177445.918747568852268, -111397.85739389853552 ] } },
{ "type": "Feature", "properties": { "stid": 105, "name": "Westlands", "city": "Tranquility", "county": "Fresno", "elev_ft": 191, "connect_date": "1992-04-17", "disconnect_date": "2050-12-31", "stn_intvl": 1852588800.0, "active": true }, "geometry": { "type": "Point", "coordinates": [ -34095.365460363842431, -153590.73768517980352 ] } },
{ "type": "Feature", "properties": { "stid": 106, "name": "Sanel Valley", "city": "Hopland", "county": "Mendocino", "elev_ft": 525, "connect_date": "1991-02-01", "disconnect_date": "2050-07-27", "stn_intvl": 1877126400.0, "active": true }, "geometry": { "type": "Point", "coordinates": [ -267317.398882649431471, 111758.956747225485742 ] } },
{ "type": "Feature", "properties": { "stid": 107, "name": "Santa Barbara", "city": "Santa Barbara", "county": "Santa Barbara", "elev_ft": 250, "connect_date": "1993-04-07", "disconnect_date": "2050-12-31", "stn_intvl": 1821916800.0, "active": true }, "geometry": { "type": "Point", "coordinates": [ 24123.97623263740752, -397609.97801112011075 ] } },
{ "type": "Feature", "properties": { "stid": 108, "name": "Gerber Dryland", "city": "Gerber", "county": "Tehama", "elev_ft": 245, "connect_date": "1991-03-11", "disconnect_date": "1998-05-12", "stn_intvl": 226281600.0, "active": false }, "geometry": { "type": "Point", "coordinates": [ -184428.690683907130733, 227313.655659058131278 ] } },
{ "type": "Feature", "properties": { "stid": 109, "name": "Carneros", "city": "Napa", "county": "Napa", "elev_ft": 5, "connect_date": "1993-03-11", "disconnect_date": "2022-01-13", "stn_intvl": 910224000.0, "active": false }, "geometry": { "type": "Point", "coordinates": [ -205897.992969818122219, 25139.251970428507775 ] } },
{ "type": "Feature", "properties": { "stid": 110, "name": "Newberry Springs", "city": "Dagget", "county": "San Bernardino", "elev_ft": 1929, "connect_date": "1992-02-21", "disconnect_date": "1996-12-27", "stn_intvl": 153014400.0, "active": false }, "geometry": { "type": "Point", "coordinates": [ 306890.332017978595104, -347454.039708632044494 ] } },
{ "type": "Feature", "properties": { "stid": 111, "name": "Green Valley Road", "city": "Watsonville", "county": "Santa Cruz", "elev_ft": 110, "connect_date": "1992-05-29", "disconnect_date": "2021-01-28", "stn_intvl": 904694400.0, "active": false }, "geometry": { "type": "Point", "coordinates": [ -156869.058623558812542, -117751.644567344803363 ] } },
{ "type": "Feature", "properties": { "stid": 112, "name": "San Ardo", "city": "San Lucas", "county": "Monterey", "elev_ft": 374, "connect_date": "1993-06-18", "disconnect_date": "1995-03-13", "stn_intvl": 54691200.0, "active": false }, "geometry": { "type": "Point", "coordinates": [ -86151.070389570522821, -214915.570663807448 ] } },
{ "type": "Feature", "properties": { "stid": 113, "name": "King City-Oasis Rd.", "city": "King City", "county": "Monterey", "elev_ft": 540, "connect_date": "1993-06-12", "disconnect_date": "2050-12-31", "stn_intvl": 1816214400.0, "active": true }, "geometry": { "type": "Point", "coordinates": [ -97501.566654525333433, -210104.689797716680914 ] } },
{ "type": "Feature", "properties": { "stid": 114, "name": "Arroyo Seco", "city": "Soledad", "county": "Monterey", "elev_ft": 235, "connect_date": "1993-06-18", "disconnect_date": "2050-12-31", "stn_intvl": 1815696000.0, "active": true }, "geometry": { "type": "Point", "coordinates": [ -115747.399693401574041, -184735.820012910291553 ] } },
{ "type": "Feature", "properties": { "stid": 115, "name": "Gonzales", "city": "Salinas", "county": "Monterey", "elev_ft": 146, "connect_date": "1993-06-12", "disconnect_date": "1998-11-10", "stn_intvl": 170812800.0, "active": false }, "geometry": { "type": "Point", "coordinates": [ -135590.498529816337395, -166387.377297671046108 ] } },
{ "type": "Feature", "properties": { "stid": 116, "name": "Salinas North", "city": "Salinas", "county": "Monterey", "elev_ft": 61, "connect_date": "1993-06-18", "disconnect_date": "2050-12-31", "stn_intvl": 1815696000.0, "active": true }, "geometry": { "type": "Point", "coordinates": [ -150912.809709585679229, -143112.647870842833072 ] } },
{ "type": "Feature", "properties": { "stid": 117, "name": "Victorville", "city": "Victorville", "county": "San Bernardino", "elev_ft": 2890, "connect_date": "1994-02-01", "disconnect_date": "2050-12-31", "stn_intvl": 1795996800.0, "active": true }, "geometry": { "type": "Point", "coordinates": [ 251251.086045888776425, -389737.836327807512134 ] } },
{ "type": "Feature", "properties": { "stid": 118, "name": "Cathedral City", "city": "Cathedral City", "county": "Riverside", "elev_ft": 392, "connect_date": "1995-12-07", "disconnect_date": "2014-10-09", "stn_intvl": 594518400.0, "active": false }, "geometry": { "type": "Point", "coordinates": [ 325890.618529800791293, -457717.051675996277481 ] } },
{ "type": "Feature", "properties": { "stid": 119, "name": "Putah Creek", "city": "Winters", "county": "Solano", "elev_ft": 180, "connect_date": "1993-08-21", "disconnect_date": "1995-01-25", "stn_intvl": 45100800.0, "active": false }, "geometry": { "type": "Point", "coordinates": [ -174571.23383016148, 54737.052499302197248 ] } },
{ "type": "Feature", "properties": { "stid": 120, "name": "Guadalupe", "city": "Guadalupe", "county": "Santa Barbara", "elev_ft": 110, "connect_date": "1993-12-24", "disconnect_date": "2000-11-28", "stn_intvl": 218678400.0, "active": false }, "geometry": { "type": "Point", "coordinates": [ -50064.671916587751184, -339175.896791968494654 ] } },
{ "type": "Feature", "properties": { "stid": 121, "name": "Dixon", "city": "Dixon", "county": "Solano", "elev_ft": 37, "connect_date": "1994-09-20", "disconnect_date": "2021-07-06", "stn_intvl": 845510400.0, "active": false }, "geometry": { "type": "Point", "coordinates": [ -155828.516072941070888, 45845.323557369410992 ] } },
{ "type": "Feature", "properties": { "stid": 122, "name": "Hastings Tract", "city": "Dixon", "county": "Solano", "elev_ft": 10, "connect_date": "1995-03-28", "disconnect_date": "2009-06-10", "stn_intvl": 448243200.0, "active": false }, "geometry": { "type": "Point", "coordinates": [ -156428.407768631353974, 31126.142859417945147 ] } },
{ "type": "Feature", "properties": { "stid": 123, "name": "Suisun Valley", "city": "Cordelia", "county": "Solano", "elev_ft": 35, "connect_date": "1994-08-18", "disconnect_date": "2010-07-11", "stn_intvl": 501638400.0, "active": false }, "geometry": { "type": "Point", "coordinates": [ -185059.628112821810646, 26256.596201989799738 ] } },
{ "type": "Feature", "properties": { "stid": 124, "name": "Panoche", "city": "Firebaugh", "county": "Fresno", "elev_ft": 183, "connect_date": "1995-07-27", "disconnect_date": "2050-12-31", "stn_intvl": 1749254400.0, "active": true }, "geometry": { "type": "Point", "coordinates": [ -65094.401106561264896, -124951.841727530118078 ] } },
{ "type": "Feature", "properties": { "stid": 125, "name": "Arvin-Edison", "city": "Arvin", "county": "Kern", "elev_ft": 500, "connect_date": "1995-03-22", "disconnect_date": "2050-12-31", "stn_intvl": 1760227200.0, "active": true }, "geometry": { "type": "Point", "coordinates": [ 111129.179918715177337, -311644.177737644873559 ] } },
{ "type": "Feature", "properties": { "stid": 126, "name": "San Benito", "city": "Hollister", "county": "San Benito", "elev_ft": 340, "connect_date": "1994-06-09", "disconnect_date": "2050-12-31", "stn_intvl": 1784937600.0, "active": true }, "geometry": { "type": "Point", "coordinates": [ -121336.019588414928876, -128245.925406826194376 ] } },
{ "type": "Feature", "properties": { "stid": 127, "name": "Salton Sea West", "city": "Salton City", "county": "Imperial", "elev_ft": -225, "connect_date": "1994-11-21", "disconnect_date": "2012-09-16", "stn_intvl": 562377600.0, "active": false }, "geometry": { "type": "Point", "coordinates": [ 377708.280965623853263, -512631.572150541003793 ] } },
{ "type": "Feature", "properties": { "stid": 128, "name": "Salton Sea East", "city": "Niland", "county": "Imperial", "elev_ft": -226, "connect_date": "1994-11-17", "disconnect_date": "2013-08-09", "stn_intvl": 590976000.0, "active": false }, "geometry": { "type": "Point", "coordinates": [ 412210.95812026259955, -523015.934410936199129 ] } },
{ "type": "Feature", "properties": { "stid": 129, "name": "Pajaro", "city": "Pajaro", "county": "Monterey", "elev_ft": 65, "connect_date": "1995-09-13", "disconnect_date": "2050-12-31", "stn_intvl": 1745107200.0, "active": true }, "geometry": { "type": "Point", "coordinates": [ -154996.013023571140366, -122364.95095854671672 ] } },
{ "type": "Feature", "properties": { "stid": 130, "name": "Temecula East", "city": "Temecula", "county": "Riverside", "elev_ft": 1500, "connect_date": "1995-07-01", "disconnect_date": "1996-11-05", "stn_intvl": 42595200.0, "active": false }, "geometry": { "type": "Point", "coordinates": [ 275234.313624835864175, -491059.526531073264778 ] } },
{ "type": "Feature", "properties": { "stid": 131, "name": "Fair Oaks", "city": "Fair Oaks", "county": "Sacramento", "elev_ft": 265, "connect_date": "1997-04-18", "disconnect_date": "2050-12-31", "stn_intvl": 1694736000.0, "active": true }, "geometry": { "type": "Point", "coordinates": [ -105960.65900811830943, 71113.673506787978113 ] } },
{ "type": "Feature", "properties": { "stid": 132, "name": "Morgan Hill", "city": "Morgan Hill", "county": "Santa Clara", "elev_ft": 385, "connect_date": "1997-04-28", "disconnect_date": "2008-05-01", "stn_intvl": 347414400.0, "active": false }, "geometry": { "type": "Point", "coordinates": [ -145122.65604065003572, -94886.218268097843975 ] } },
{ "type": "Feature", "properties": { "stid": 133, "name": "Glendale", "city": "Glendale", "county": "Los Angeles", "elev_ft": 1111, "connect_date": "1996-08-07", "disconnect_date": "2015-01-05", "stn_intvl": 581040000.0, "active": false }, "geometry": { "type": "Point", "coordinates": [ 163086.142032466857927, -422842.732250329107046 ] } },
{ "type": "Feature", "properties": { "stid": 134, "name": "Barstow NE", "city": "Barstow", "county": "San Bernardino", "elev_ft": 2040, "connect_date": "1997-01-08", "disconnect_date": "2013-10-30", "stn_intvl": 530409600.0, "active": false }, "geometry": { "type": "Point", "coordinates": [ 275842.394831692741718, -343643.424605414271355 ] } },
{ "type": "Feature", "properties": { "stid": 135, "name": "Blythe NE", "city": "Blythe", "county": "Riverside", "elev_ft": 275, "connect_date": "1997-01-16", "disconnect_date": "2050-12-31", "stn_intvl": 1702684800.0, "active": true }, "geometry": { "type": "Point", "coordinates": [ 504616.686297139967792, -469069.015297467354685 ] } },
{ "type": "Feature", "properties": { "stid": 136, "name": "Oasis", "city": "Oasis/Indio", "county": "Riverside", "elev_ft": 12, "connect_date": "1997-01-07", "disconnect_date": "2050-12-31", "stn_intvl": 1703462400.0, "active": true }, "geometry": { "type": "Point", "coordinates": [ 357193.977715499000624, -491742.839883415959775 ] } },
{ "type": "Feature", "properties": { "stid": 137, "name": "Temecula East II", "city": "Temecula", "county": "Riverside", "elev_ft": 1536, "connect_date": "1997-02-20", "disconnect_date": "2011-09-20", "stn_intvl": 460080000.0, "active": false }, "geometry": { "type": "Point", "coordinates": [ 275718.95504060346866, -490863.7848717472516 ] } },
{ "type": "Feature", "properties": { "stid": 138, "name": "Famoso", "city": "Macfarland", "county": "Kern", "elev_ft": 415, "connect_date": "1997-04-09", "disconnect_date": "2015-12-29", "stn_intvl": 590803200.0, "active": false }, "geometry": { "type": "Point", "coordinates": [ 71265.892854863515822, -267912.56776822404936 ] } },
{ "type": "Feature", "properties": { "stid": 139, "name": "Winters", "city": "Winters", "county": "Solano", "elev_ft": 136, "connect_date": "1998-06-15", "disconnect_date": "2050-12-31", "stn_intvl": 1658188800.0, "active": true }, "geometry": { "type": "Point", "coordinates": [ -172337.762923659232911, 55700.917578983586282 ] } },
{ "type": "Feature", "properties": { "stid": 140, "name": "Twitchell Island", "city": "Rio Vista", "county": "Sacramento", "elev_ft": 0, "connect_date": "1997-10-08", "disconnect_date": "2050-12-31", "stn_intvl": 1679788800.0, "active": true }, "geometry": { "type": "Point", "coordinates": [ -146599.709030835831072, 13008.597152811475098 ] } },
{ "type": "Feature", "properties": { "stid": 141, "name": "Mecca", "city": "Mecca", "county": "Riverside", "elev_ft": -180, "connect_date": "1998-05-05", "disconnect_date": "2010-03-11", "stn_intvl": 373939200.0, "active": false }, "geometry": { "type": "Point", "coordinates": [ 372264.043307589192409, -489653.853304197546095 ] } },
{ "type": "Feature", "properties": { "stid": 142, "name": "Orange Cove", "city": "Orange Cove", "county": "Fresno", "elev_ft": 450, "connect_date": "1999-01-01", "disconnect_date": "2023-01-06", "stn_intvl": 757814400.0, "active": false }, "geometry": { "type": "Point", "coordinates": [ 54496.611632491607452, -143808.268573419190943 ] } },
{ "type": "Feature", "properties": { "stid": 143, "name": "San Juan Valley", "city": "Hollister", "county": "San Benito", "elev_ft": 245, "connect_date": "1998-01-01", "disconnect_date": "2050-12-31", "stn_intvl": 1672444800.0, "active": true }, "geometry": { "type": "Point", "coordinates": [ -130749.950382782219094, -131659.426267064642161 ] } },
{ "type": "Feature", "properties": { "stid": 144, "name": "Petaluma East", "city": "Petaluma", "county": "Sonoma", "elev_ft": 97, "connect_date": "1999-08-25", "disconnect_date": "2050-12-31", "stn_intvl": 1620518400.0, "active": true }, "geometry": { "type": "Point", "coordinates": [ -228611.909641653241124, 30953.093973861541599 ] } },
{ "type": "Feature", "properties": { "stid": 145, "name": "Madera", "city": "Madera", "county": "Madera", "elev_ft": 230, "connect_date": "1998-05-13", "disconnect_date": "2013-03-27", "stn_intvl": 469324800.0, "active": false }, "geometry": { "type": "Point", "coordinates": [ -16560.949519437981508, -111128.973727711476386 ] } },
{ "type": "Feature", "properties": { "stid": 146, "name": "Belridge", "city": "Lost Hills", "county": "Kern", "elev_ft": 410, "connect_date": "1998-10-09", "disconnect_date": "2050-12-31", "stn_intvl": 1648166400.0, "active": true }, "geometry": { "type": "Point", "coordinates": [ 27989.37696824829618, -278968.304135833401233 ] } },
{ "type": "Feature", "properties": { "stid": 147, "name": "Otay Lake", "city": "Chula Vista", "county": "San Diego", "elev_ft": 580, "connect_date": "1999-04-15", "disconnect_date": "2050-12-31", "stn_intvl": 1631923200.0, "active": true }, "geometry": { "type": "Point", "coordinates": [ 287622.144756718946155, -593558.164028903469443 ] } },
{ "type": "Feature", "properties": { "stid": 148, "name": "Merced", "city": "Merced", "county": "Merced", "elev_ft": 200, "connect_date": "1999-01-04", "disconnect_date": "2024-04-09", "stn_intvl": 797212800.0, "active": false }, "geometry": { "type": "Point", "coordinates": [ -34223.700311692657124, -77993.543763724155724 ] } },
{ "type": "Feature", "properties": { "stid": 149, "name": "Oakland Foothills", "city": "Oakland", "county": "Alameda", "elev_ft": 145, "connect_date": "1999-03-25", "disconnect_date": "2013-08-13", "stn_intvl": 454032000.0, "active": false }, "geometry": { "type": "Point", "coordinates": [ -191738.606746714591281, -23998.770722363609821 ] } },
{ "type": "Feature", "properties": { "stid": 150, "name": "Miramar", "city": "La Jolla", "county": "San Diego", "elev_ft": 445, "connect_date": "1999-04-23", "disconnect_date": "2050-12-31", "stn_intvl": 1631232000.0, "active": true }, "geometry": { "type": "Point", "coordinates": [ 267611.360761033662129, -565636.197789745405316 ] } },
{ "type": "Feature", "properties": { "stid": 151, "name": "Ripley", "city": "Blythe", "county": "Riverside", "elev_ft": 251, "connect_date": "1998-12-19", "disconnect_date": "2050-12-31", "stn_intvl": 1642032000.0, "active": true }, "geometry": { "type": "Point", "coordinates": [ 498416.700844893755857, -483931.251847827807069 ] } },
{ "type": "Feature", "properties": { "stid": 152, "name": "Camarillo", "city": "Camarillo", "county": "Ventura", "elev_ft": 130, "connect_date": "2000-01-21", "disconnect_date": "2050-12-31", "stn_intvl": 1607644800.0, "active": true }, "geometry": { "type": "Point", "coordinates": [ 92822.823175383746275, -421336.014471726492047 ] } },
{ "type": "Feature", "properties": { "stid": 153, "name": "Escondido SPV", "city": "Escondido", "county": "San Diego", "elev_ft": 390, "connect_date": "1999-02-01", "disconnect_date": "2050-12-31", "stn_intvl": 1638230400.0, "active": true }, "geometry": { "type": "Point", "coordinates": [ 282601.135656645405106, -543535.679237604606897 ] } },
{ "type": "Feature", "properties": { "stid": 154, "name": "Salton Sea North", "city": "North Shore", "county": "Riverside", "elev_ft": -200, "connect_date": "1998-10-15", "disconnect_date": "2003-10-30", "stn_intvl": 159062400.0, "active": false }, "geometry": { "type": "Point", "coordinates": [ 379592.729999656730797, -493003.191604474093765 ] } },
{ "type": "Feature", "properties": { "stid": 155, "name": "Bryte (experimental)", "city": "West Sacramento", "county": "Yolo", "elev_ft": 40, "connect_date": "1998-12-10", "disconnect_date": "2022-09-06", "stn_intvl": 749174400.0, "active": false }, "geometry": { "type": "Point", "coordinates": [ -134002.813363858789671, 65873.725098726339638 ] } },
{ "type": "Feature", "properties": { "stid": 156, "name": "Oxnard", "city": "Oxnard", "county": "Ventura", "elev_ft": 48, "connect_date": "2001-10-12", "disconnect_date": "2017-04-27", "stn_intvl": 490406400.0, "active": false }, "geometry": { "type": "Point", "coordinates": [ 73971.940597717650235, -419934.591464538127184 ] } },
{ "type": "Feature", "properties": { "stid": 157, "name": "Point San Pedro", "city": "San Rafael", "county": "Marin", "elev_ft": 5, "connect_date": "2002-10-11", "disconnect_date": "2050-12-31", "stn_intvl": 1521763200.0, "active": true }, "geometry": { "type": "Point", "coordinates": [ -216397.135160984587856, 494.338481239508837 ] } },
{ "type": "Feature", "properties": { "stid": 158, "name": "Bennett Valley", "city": "Santa Rosa", "county": "Sonoma", "elev_ft": 270, "connect_date": "2000-10-01", "disconnect_date": "2050-12-31", "stn_intvl": 1585699200.0, "active": true }, "geometry": { "type": "Point", "coordinates": [ -231826.469403285038425, 48058.311435401439667 ] } },
{ "type": "Feature", "properties": { "stid": 159, "name": "Monrovia", "city": "Monrovia", "county": "Los Angeles", "elev_ft": 595, "connect_date": "1999-10-15", "disconnect_date": "2050-12-31", "stn_intvl": 1616112000.0, "active": true }, "geometry": { "type": "Point", "coordinates": [ 185722.505768630042439, -427956.836157500278205 ] } },
{ "type": "Feature", "properties": { "stid": 160, "name": "San Luis Obispo West", "city": "San Luis Obispo", "county": "San Luis Obispo", "elev_ft": 285, "connect_date": "2000-11-01", "disconnect_date": "2050-12-31", "stn_intvl": 1583020800.0, "active": true }, "geometry": { "type": "Point", "coordinates": [ -66833.090678510838188, -297699.425080979242921 ] } },
{ "type": "Feature", "properties": { "stid": 161, "name": "Patterson", "city": "Patterson", "county": "Stanislaus", "elev_ft": 183, "connect_date": "1999-08-23", "disconnect_date": "2017-10-12", "stn_intvl": 572400000.0, "active": false }, "geometry": { "type": "Point", "coordinates": [ -100591.603691056123353, -63585.696994255296886 ] } },
{ "type": "Feature", "properties": { "stid": 162, "name": "Indio", "city": "Indio", "county": "Riverside", "elev_ft": 40, "connect_date": "1999-12-24", "disconnect_date": "2006-02-26", "stn_intvl": 194918400.0, "active": false }, "geometry": { "type": "Point", "coordinates": [ 346745.571705475973431, -467480.758942352607846 ] } },
{ "type": "Feature", "properties": { "stid": 163, "name": "Atascadero", "city": "Atascadero", "county": "San Luis Obispo", "elev_ft": 885, "connect_date": "2000-11-21", "disconnect_date": "2050-12-31", "stn_intvl": 1581292800.0, "active": true }, "geometry": { "type": "Point", "coordinates": [ -58760.376217851669935, -282509.197125798091292 ] } },
{ "type": "Feature", "properties": { "stid": 164, "name": "Valley of the Moon", "city": "Sonoma", "county": "Sonoma", "elev_ft": 155, "connect_date": "2000-04-01", "disconnect_date": "2001-12-18", "stn_intvl": 54086400.0, "active": false }, "geometry": { "type": "Point", "coordinates": [ -218190.642218374239746, 35644.517915790434927 ] } },
{ "type": "Feature", "properties": { "stid": 165, "name": "Sisquoc", "city": "Santa Maria", "county": "Santa Barbara", "elev_ft": 536, "connect_date": "2000-04-26", "disconnect_date": "2050-12-31", "stn_intvl": 1599350400.0, "active": true }, "geometry": { "type": "Point", "coordinates": [ -19444.290355292247114, -352721.40110677620396 ] } },
{ "type": "Feature", "properties": { "stid": 166, "name": "Lodi West", "city": "Lodi", "county": "San Joaquin", "elev_ft": 25, "connect_date": "2000-09-13", "disconnect_date": "2015-03-20", "stn_intvl": 458006400.0, "active": false }, "geometry": { "type": "Point", "coordinates": [ -121385.58850395763875, 13512.533335228916258 ] } },
{ "type": "Feature", "properties": { "stid": 167, "name": "Tracy", "city": "Tracy", "county": "San Joaquin", "elev_ft": 82, "connect_date": "2001-09-01", "disconnect_date": "2017-05-31", "stn_intvl": 496886400.0, "active": false }, "geometry": { "type": "Point", "coordinates": [ -129869.159314077580348, -31281.624104312155396 ] } },
{ "type": "Feature", "properties": { "stid": 168, "name": "Denair", "city": "Denair", "county": "Stanislaus", "elev_ft": 140, "connect_date": "2002-08-28", "disconnect_date": "2009-04-09", "stn_intvl": 208742400.0, "active": false }, "geometry": { "type": "Point", "coordinates": [ -68748.858014463883592, -51215.827491605654359 ] } },
{ "type": "Feature", "properties": { "stid": 169, "name": "Porterville", "city": "Porterville", "county": "Tulare", "elev_ft": 400, "connect_date": "2000-08-02", "disconnect_date": "2023-03-17", "stn_intvl": 713836800.0, "active": false }, "geometry": { "type": "Point", "coordinates": [ 81542.47619476854743, -214608.973087600432336 ] } },
{ "type": "Feature", "properties": { "stid": 170, "name": "Concord", "city": "Concord", "county": "Contra Costa", "elev_ft": 35, "connect_date": "2001-04-06", "disconnect_date": "2050-12-31", "stn_intvl": 1569542400.0, "active": true }, "geometry": { "type": "Point", "coordinates": [ -177124.687846723332768, 1776.810710877180099 ] } },
{ "type": "Feature", "properties": { "stid": 171, "name": "Union City", "city": "Union City", "county": "Alameda", "elev_ft": 16, "connect_date": "2001-02-05", "disconnect_date": "2050-12-31", "stn_intvl": 1574726400.0, "active": true }, "geometry": { "type": "Point", "coordinates": [ -181015.991976163495565, -44463.831749977078289 ] } },
{ "type": "Feature", "properties": { "stid": 172, "name": "Lost Hills NW", "city": "Lost Hills", "county": "Kern", "elev_ft": 225, "connect_date": "2000-07-26", "disconnect_date": "2003-07-01", "stn_intvl": 92448000.0, "active": false }, "geometry": { "type": "Point", "coordinates": [ 23261.945148962204257, -253723.443138761911541 ] } },
{ "type": "Feature", "properties": { "stid": 173, "name": "Torrey Pines", "city": "La Jolla", "county": "San Diego", "elev_ft": 335, "connect_date": "2000-11-29", "disconnect_date": "2050-12-31", "stn_intvl": 1580601600.0, "active": true }, "geometry": { "type": "Point", "coordinates": [ 257509.765728856029455, -564159.668803437612951 ] } },
{ "type": "Feature", "properties": { "stid": 174, "name": "Long Beach", "city": "Long Beach", "county": "Los Angeles", "elev_ft": 17, "connect_date": "2000-09-22", "disconnect_date": "2050-12-31", "stn_intvl": 1586476800.0, "active": true }, "geometry": { "type": "Point", "coordinates": [ 176449.200316676608054, -466720.488289374858141 ] } },
{ "type": "Feature", "properties": { "stid": 175, "name": "Palo Verde II", "city": "Palo Verde", "county": "Imperial", "elev_ft": 230, "connect_date": "2001-01-11", "disconnect_date": "2025-03-26", "stn_intvl": 763776000.0, "active": false }, "geometry": { "type": "Point", "coordinates": [ 491416.819736325531267, -500814.898367623332888 ] } },
{ "type": "Feature", "properties": { "stid": 176, "name": "La Quinta", "city": "Indio", "county": "Riverside", "elev_ft": 42, "connect_date": "2000-11-10", "disconnect_date": "2006-09-26", "stn_intvl": 185414400.0, "active": false }, "geometry": { "type": "Point", "coordinates": [ 342582.230138692364562, -474364.010649618692696 ] } },
{ "type": "Feature", "properties": { "stid": 177, "name": "Watsonville West", "city": "Watsonville", "county": "Santa Cruz", "elev_ft": 212, "connect_date": "2000-11-30", "disconnect_date": "2006-03-22", "stn_intvl": 167443200.0, "active": false }, "geometry": { "type": "Point", "coordinates": [ -161334.719590969354613, -122554.926995642017573 ] } },
{ "type": "Feature", "properties": { "stid": 178, "name": "Moraga", "city": "Moraga", "county": "Contra Costa", "elev_ft": 510, "connect_date": "2002-02-27", "disconnect_date": "2050-12-31", "stn_intvl": 1541289600.0, "active": true }, "geometry": { "type": "Point", "coordinates": [ -188130.226779783755774, -17747.191518244799227 ] } },
{ "type": "Feature", "properties": { "stid": 179, "name": "Winchester", "city": "Winchester", "county": "Riverside", "elev_ft": 1626, "connect_date": "2002-02-07", "disconnect_date": "2050-12-31", "stn_intvl": 1543017600.0, "active": true }, "geometry": { "type": "Point", "coordinates": [ 269629.91430909227347, -479371.159995139110833 ] } },
{ "type": "Feature", "properties": { "stid": 180, "name": "Westmorland West", "city": "Westmorland", "county": "Imperial", "elev_ft": -218, "connect_date": "2001-11-08", "disconnect_date": "2003-07-21", "stn_intvl": 53568000.0, "active": false }, "geometry": { "type": "Point", "coordinates": [ 391878.518648283847142, -534591.427258758340031 ] } },
{ "type": "Feature", "properties": { "stid": 181, "name": "Westmorland North", "city": "Imperial", "county": "Imperial", "elev_ft": -200, "connect_date": "2004-04-01", "disconnect_date": "2050-06-17", "stn_intvl": 1458259200.0, "active": true }, "geometry": { "type": "Point", "coordinates": [ 405431.95297129265964, -539033.601068116724491 ] } },
{ "type": "Feature", "properties": { "stid": 182, "name": "Delano", "city": "Delano", "county": "Tulare", "elev_ft": 300, "connect_date": "2002-03-21", "disconnect_date": "2050-12-31", "stn_intvl": 1539388800.0, "active": true }, "geometry": { "type": "Point", "coordinates": [ 67140.282369733700762, -242406.844125218689442 ] } },
{ "type": "Feature", "properties": { "stid": 183, "name": "Owens Lake North", "city": "Keeler", "county": "Inyo", "elev_ft": 3684, "connect_date": "2002-12-16", "disconnect_date": "2050-12-31", "stn_intvl": 1516060800.0, "active": true }, "geometry": { "type": "Point", "coordinates": [ 186132.769977093179477, -167778.305949923116714 ] } },
{ "type": "Feature", "properties": { "stid": 184, "name": "San Diego II", "city": "San Diego", "county": "San Diego", "elev_ft": 377, "connect_date": "2002-03-01", "disconnect_date": "2050-12-31", "stn_intvl": 1541116800.0, "active": true }, "geometry": { "type": "Point", "coordinates": [ 268489.354639791417867, -582925.189888085238636 ] } },
{ "type": "Feature", "properties": { "stid": 185, "name": "UC-Mex", "city": "Calexico", "county": "Imperial", "elev_ft": 39, "connect_date": "2002-01-18", "disconnect_date": "2002-08-28", "stn_intvl": 19180800.0, "active": false }, "geometry": { "type": "Point", "coordinates": [ 452429.477899838995654, -610773.81475285673514 ] } },
{ "type": "Feature", "properties": { "stid": 186, "name": "UC-San Luis", "city": "Calexico", "county": "Imperial", "elev_ft": 48, "connect_date": "2002-04-16", "disconnect_date": "2016-01-25", "stn_intvl": 434764800.0, "active": false }, "geometry": { "type": "Point", "coordinates": [ 486858.082926385162864, -599921.152175718452781 ] } },
{ "type": "Feature", "properties": { "stid": 187, "name": "Black Point", "city": "Novato", "county": "Marin", "elev_ft": 1, "connect_date": "2003-06-01", "disconnect_date": "2050-12-31", "stn_intvl": 1501632000.0, "active": true }, "geometry": { "type": "Point", "coordinates": [ -221290.926453114981996, 11238.340081003960222 ] } },
{ "type": "Feature", "properties": { "stid": 188, "name": "Madera II", "city": "Madera", "county": "Madera", "elev_ft": 242, "connect_date": "2013-03-27", "disconnect_date": "2018-06-23", "stn_intvl": 165369600.0, "active": false }, "geometry": { "type": "Point", "coordinates": [ -13327.051793133005049, -110748.781913467682898 ] } },
{ "type": "Feature", "properties": { "stid": 189, "name": "Owens Lake South", "city": "Cartago", "county": "Inyo", "elev_ft": 3682, "connect_date": "2003-04-01", "disconnect_date": "2050-12-31", "stn_intvl": 1506902400.0, "active": true }, "geometry": { "type": "Point", "coordinates": [ 184260.789061344228685, -182267.7892139935866 ] } },
{ "type": "Feature", "properties": { "stid": 190, "name": "Five Points South West", "city": "Five Points", "county": "Fresno", "elev_ft": 270, "connect_date": "2003-07-02", "disconnect_date": "2019-12-04", "stn_intvl": 518313600.0, "active": false }, "geometry": { "type": "Point", "coordinates": [ -20593.376138541054388, -181640.538321694359183 ] } },
{ "type": "Feature", "properties": { "stid": 191, "name": "Pleasanton", "city": "Pleasanton", "county": "Alameda", "elev_ft": 335, "connect_date": "2004-05-01", "disconnect_date": "2050-12-31", "stn_intvl": 1472688000.0, "active": true }, "geometry": { "type": "Point", "coordinates": [ -166045.132735617371509, -37524.013589390087873 ] } },
{ "type": "Feature", "properties": { "stid": 192, "name": "Lake Arrowhead", "city": "Lake Arrowhead", "county": "San Bernardino", "elev_ft": 5148, "connect_date": "2004-03-20", "disconnect_date": "2050-12-31", "stn_intvl": 1476316800.0, "active": true }, "geometry": { "type": "Point", "coordinates": [ 256131.662085489806486, -414015.369755560066551 ] } },
{ "type": "Feature", "properties": { "stid": 193, "name": "Pacific Grove", "city": "Pacific Grove", "county": "Monterey", "elev_ft": 50, "connect_date": "2011-10-26", "disconnect_date": "2050-12-31", "stn_intvl": 1236470400.0, "active": true }, "geometry": { "type": "Point", "coordinates": [ -172771.943856996280374, -151985.938287257216871 ] } },
{ "type": "Feature", "properties": { "stid": 194, "name": "Oakdale", "city": "Oakdale", "county": "Stanislaus", "elev_ft": 165, "connect_date": "2004-11-02", "disconnect_date": "2050-12-31", "stn_intvl": 1456704000.0, "active": true }, "geometry": { "type": "Point", "coordinates": [ -74889.881257818706217, -31810.217650536913425 ] } },
{ "type": "Feature", "properties": { "stid": 195, "name": "Auburn", "city": "Auburn", "county": "Placer", "elev_ft": 935, "connect_date": "2005-02-16", "disconnect_date": "2050-12-31", "stn_intvl": 1447545600.0, "active": true }, "geometry": { "type": "Point", "coordinates": [ -95573.055623883294174, 97402.734982206486166 ] } },
{ "type": "Feature", "properties": { "stid": 196, "name": "Esparto", "city": "Esparto", "county": "Yolo", "elev_ft": 174, "connect_date": "2005-04-15", "disconnect_date": "2017-07-15", "stn_intvl": 386553600.0, "active": false }, "geometry": { "type": "Point", "coordinates": [ -174960.513249984767754, 76939.528285165783018 ] } },
{ "type": "Feature", "properties": { "stid": 197, "name": "Palmdale", "city": "Palmdale", "county": "Los Angeles", "elev_ft": 2550, "connect_date": "2005-04-06", "disconnect_date": "2050-12-31", "stn_intvl": 1443312000.0, "active": true }, "geometry": { "type": "Point", "coordinates": [ 180338.954487969022011, -376058.396701650228351 ] } },
{ "type": "Feature", "properties": { "stid": 198, "name": "Santa Paula", "city": "Santa Paula", "county": "Ventura", "elev_ft": 218, "connect_date": "2005-03-30", "disconnect_date": "2023-06-22", "stn_intvl": 575251200.0, "active": false }, "geometry": { "type": "Point", "coordinates": [ 82354.20633457635995, -409762.158793095964938 ] } },
{ "type": "Feature", "properties": { "stid": 199, "name": "Big Bear Lake", "city": "Big Bear Lake", "county": "San Bernardino", "elev_ft": 6910, "connect_date": "2005-07-19", "disconnect_date": "2050-12-31", "stn_intvl": 1434326400.0, "active": true }, "geometry": { "type": "Point", "coordinates": [ 288637.400845383584965, -415057.002599609084427 ] } },
{ "type": "Feature", "properties": { "stid": 200, "name": "Indio 2", "city": "Indio", "county": "Riverside", "elev_ft": 40, "connect_date": "2006-05-16", "disconnect_date": "2050-12-31", "stn_intvl": 1408320000.0, "active": true }, "geometry": { "type": "Point", "coordinates": [ 347186.661709858977702, -467188.660202278289944 ] } },
{ "type": "Feature", "properties": { "stid": 201, "name": "UC-Andrade", "city": "Calexico", "county": "Imperial", "elev_ft": 120, "connect_date": "2006-01-01", "disconnect_date": "2015-10-01", "stn_intvl": 307584000.0, "active": false }, "geometry": { "type": "Point", "coordinates": [ 465291.669510965351947, -580928.481868716422468 ] } },
{ "type": "Feature", "properties": { "stid": 202, "name": "Nipomo", "city": "Nipomo", "county": "San Luis Obispo", "elev_ft": 255, "connect_date": "2006-06-27", "disconnect_date": "2050-12-31", "stn_intvl": 1404691200.0, "active": true }, "geometry": { "type": "Point", "coordinates": [ -51063.858483824522409, -331897.126738557126373 ] } },
{ "type": "Feature", "properties": { "stid": 203, "name": "Alpaugh", "city": "Alpaugh", "county": "Tulare", "elev_ft": 210, "connect_date": "2006-07-11", "disconnect_date": "2017-11-16", "stn_intvl": 358214400.0, "active": false }, "geometry": { "type": "Point", "coordinates": [ 44779.630044331737736, -239266.440107955597341 ] } },
{ "type": "Feature", "properties": { "stid": 204, "name": "Santa Clarita", "city": "Santa Clarita", "county": "Los Angeles", "elev_ft": 1410, "connect_date": "2006-12-04", "disconnect_date": "2050-12-31", "stn_intvl": 1390867200.0, "active": true }, "geometry": { "type": "Point", "coordinates": [ 136207.865604542952497, -397798.306760462932289 ] } },
{ "type": "Feature", "properties": { "stid": 205, "name": "Coalinga", "city": "Coalinga", "county": "Fresno", "elev_ft": 730, "connect_date": "2010-03-25", "disconnect_date": "2050-12-31", "stn_intvl": 1286582400.0, "active": true }, "geometry": { "type": "Point", "coordinates": [ -32365.359820358717116, -204517.237826796714216 ] } },
{ "type": "Feature", "properties": { "stid": 206, "name": "Denair II", "city": "Denair", "county": "Stanislaus", "elev_ft": 150, "connect_date": "2009-04-09", "disconnect_date": "2050-12-31", "stn_intvl": 1316822400.0, "active": true }, "geometry": { "type": "Point", "coordinates": [ -66571.842163252222235, -52038.521819401532412 ] } },
{ "type": "Feature", "properties": { "stid": 207, "name": "Borrego Springs", "city": "Borrego Springs", "county": "San Diego", "elev_ft": 578, "connect_date": "2008-01-04", "disconnect_date": "2050-12-31", "stn_intvl": 1356652800.0, "active": true }, "geometry": { "type": "Point", "coordinates": [ 338840.831107926554978, -520781.41083241533488 ] } },
{ "type": "Feature", "properties": { "stid": 208, "name": "La Quinta II", "city": "La Quinta", "county": "Riverside", "elev_ft": 36, "connect_date": "2007-02-06", "disconnect_date": "2050-12-31", "stn_intvl": 1385337600.0, "active": true }, "geometry": { "type": "Point", "coordinates": [ 345632.985558892716654, -475062.370725652202964 ] } },
{ "type": "Feature", "properties": { "stid": 209, "name": "Watsonville West II", "city": "Watsonville", "county": "Santa Cruz", "elev_ft": 240, "connect_date": "2007-06-13", "disconnect_date": "2050-12-31", "stn_intvl": 1374364800.0, "active": true }, "geometry": { "type": "Point", "coordinates": [ -162244.508101099403575, -121083.019104179460555 ] } },
{ "type": "Feature", "properties": { "stid": 210, "name": "Carmel", "city": "Carmel", "county": "Monterey", "elev_ft": 75, "connect_date": "2008-07-22", "disconnect_date": "2050-12-31", "stn_intvl": 1339372800.0, "active": true }, "geometry": { "type": "Point", "coordinates": [ -168252.589573184988694, -162340.791136376094073 ] } },
{ "type": "Feature", "properties": { "stid": 211, "name": "Gilroy", "city": "Gilroy", "county": "Santa Clara", "elev_ft": 185, "connect_date": "2009-09-01", "disconnect_date": "2050-12-31", "stn_intvl": 1304294400.0, "active": true }, "geometry": { "type": "Point", "coordinates": [ -136564.449179856659612, -110205.188095427583903 ] } },
{ "type": "Feature", "properties": { "stid": 212, "name": "Hastings Tract East", "city": "Dixon", "county": "Solano", "elev_ft": 7, "connect_date": "2009-10-20", "disconnect_date": "2050-12-31", "stn_intvl": 1300060800.0, "active": true }, "geometry": { "type": "Point", "coordinates": [ -152115.655903102597222, 30487.777074994053692 ] } },
{ "type": "Feature", "properties": { "stid": 213, "name": "El Cerrito", "city": "El Cerrito", "county": "Contra Costa", "elev_ft": 596, "connect_date": "2013-09-24", "disconnect_date": "2050-12-31", "stn_intvl": 1176076800.0, "active": true }, "geometry": { "type": "Point", "coordinates": [ -202108.377115121780662, -6975.353537306655198 ] } },
{ "type": "Feature", "properties": { "stid": 214, "name": "Salinas South II", "city": "Salinas", "county": "Monterey", "elev_ft": 153, "connect_date": "2013-05-17", "disconnect_date": "2050-12-31", "stn_intvl": 1187308800.0, "active": true }, "geometry": { "type": "Point", "coordinates": [ -137341.918051238171756, -153480.038364008069038 ] } },
{ "type": "Feature", "properties": { "stid": 215, "name": "Chatsworth", "city": "Chatsworth", "county": "Los Angeles", "elev_ft": 1536, "connect_date": "2011-09-01", "disconnect_date": "2050-12-31", "stn_intvl": 1241222400.0, "active": true }, "geometry": { "type": "Point", "coordinates": [ 131614.085205449548084, -412854.186045135837048 ] } },
{ "type": "Feature", "properties": { "stid": 216, "name": "Arleta", "city": "Arleta", "county": "Los Angeles", "elev_ft": 980, "connect_date": "2011-09-08", "disconnect_date": "2050-12-31", "stn_intvl": 1240617600.0, "active": true }, "geometry": { "type": "Point", "coordinates": [ 148914.650543311028741, -416484.474835804663599 ] } },
{ "type": "Feature", "properties": { "stid": 217, "name": "Moorpark", "city": "Moorpark", "county": "Ventura", "elev_ft": 718, "connect_date": "2014-07-03", "disconnect_date": "2050-12-31", "stn_intvl": 1151712000.0, "active": true }, "geometry": { "type": "Point", "coordinates": [ 105940.580409088084707, -415678.155948420986533 ] } },
{ "type": "Feature", "properties": { "stid": 218, "name": "Thermal South", "city": "Thermal", "county": "Riverside", "elev_ft": -150, "connect_date": "2010-01-30", "disconnect_date": "2050-12-31", "stn_intvl": 1291248000.0, "active": true }, "geometry": { "type": "Point", "coordinates": [ 356651.439469489792828, -483775.972499269992113 ] } },
{ "type": "Feature", "properties": { "stid": 219, "name": "West Hills", "city": "West Hills", "county": "Los Angeles", "elev_ft": 926, "connect_date": "2011-09-06", "disconnect_date": "2024-03-13", "stn_intvl": 395020800.0, "active": false }, "geometry": { "type": "Point", "coordinates": [ 124858.71802568800922, -421512.554034359753132 ] } },
{ "type": "Feature", "properties": { "stid": 220, "name": "Palmdale Central", "city": "Palmdale", "county": "Los Angeles", "elev_ft": 2630, "connect_date": "2011-03-23", "disconnect_date": "2050-12-31", "stn_intvl": 1255219200.0, "active": true }, "geometry": { "type": "Point", "coordinates": [ 171681.531498277559876, -378760.31277813622728 ] } },
{ "type": "Feature", "properties": { "stid": 221, "name": "Cadiz Valley", "city": "Chambless", "county": "San Bernardino", "elev_ft": 155, "connect_date": "2010-11-01", "disconnect_date": "2050-10-10", "stn_intvl": 1260403200.0, "active": true }, "geometry": { "type": "Point", "coordinates": [ 411903.514778890530579, -379426.266271263826638 ] } },
{ "type": "Feature", "properties": { "stid": 222, "name": "Gerber South", "city": "Gerber", "county": "Tehama", "elev_ft": 246, "connect_date": "2014-08-13", "disconnect_date": "2050-12-31", "stn_intvl": 1148169600.0, "active": true }, "geometry": { "type": "Point", "coordinates": [ -183780.642223767004907, 226990.895369381643832 ] } },
{ "type": "Feature", "properties": { "stid": 223, "name": "North Hollywood", "city": "Universal City", "county": "Los Angeles", "elev_ft": 570, "connect_date": "2018-01-30", "disconnect_date": "2050-05-28", "stn_intvl": 1020038400.0, "active": true }, "geometry": { "type": "Point", "coordinates": [ 150646.548684886132833, -429015.748852315824479 ] } },
{ "type": "Feature", "properties": { "stid": 224, "name": "Shasta College", "city": "Redding", "county": "Shasta", "elev_ft": 592, "connect_date": "2013-01-01", "disconnect_date": "2050-12-31", "stn_intvl": 1199059200.0, "active": true }, "geometry": { "type": "Point", "coordinates": [ -195442.489357191836461, 292807.75432142522186 ] } },
{ "type": "Feature", "properties": { "stid": 225, "name": "Scott Valley", "city": "Fort Jones", "county": "Siskiyou", "elev_ft": 2733, "connect_date": "2015-04-01", "disconnect_date": "2050-12-31", "stn_intvl": 1128211200.0, "active": true }, "geometry": { "type": "Point", "coordinates": [ -236965.320025580964284, 399156.435558287426829 ] } },
{ "type": "Feature", "properties": { "stid": 226, "name": "Woodland", "city": "Woodland", "county": "Yolo", "elev_ft": 82, "connect_date": "2011-05-12", "disconnect_date": "2050-12-31", "stn_intvl": 1250899200.0, "active": true }, "geometry": { "type": "Point", "coordinates": [ -157445.611565140803577, 74466.615434120409191 ] } },
{ "type": "Feature", "properties": { "stid": 227, "name": "Plymouth", "city": "Plymouth", "county": "Amador", "elev_ft": 1520, "connect_date": "2010-11-01", "disconnect_date": "2050-12-31", "stn_intvl": 1267488000.0, "active": true }, "geometry": { "type": "Point", "coordinates": [ -69656.361191163770854, 54982.859150488860905 ] } },
{ "type": "Feature", "properties": { "stid": 228, "name": "Diamond Springs", "city": "Diamond Springs", "county": "El Dorado", "elev_ft": 2050, "connect_date": "2010-09-29", "disconnect_date": "2050-12-31", "stn_intvl": 1270339200.0, "active": true }, "geometry": { "type": "Point", "coordinates": [ -68956.60323019286443, 69181.092763844877481 ] } },
{ "type": "Feature", "properties": { "stid": 229, "name": "Laguna Seca", "city": "Monterey", "county": "Monterey", "elev_ft": 320, "connect_date": "2011-01-01", "disconnect_date": "2050-12-31", "stn_intvl": 1262217600.0, "active": true }, "geometry": { "type": "Point", "coordinates": [ -159658.037665285781259, -159258.818386601749808 ] } },
{ "type": "Feature", "properties": { "stid": 230, "name": "Santa Barbara II", "city": "Santa Barbara", "county": "Santa Barbara", "elev_ft": 440, "connect_date": "2011-01-10", "disconnect_date": "2018-01-23", "stn_intvl": 222048000.0, "active": false }, "geometry": { "type": "Point", "coordinates": [ 26194.366903335601819, -401132.577634025830775 ] } },
{ "type": "Feature", "properties": { "stid": 231, "name": "Lompoc", "city": "Lompoc", "county": "Santa Barbara", "elev_ft": 55, "connect_date": "2010-07-14", "disconnect_date": "2050-12-31", "stn_intvl": 1276992000.0, "active": true }, "geometry": { "type": "Point", "coordinates": [ -46995.05821979996108, -371449.055945088155568 ] } },
{ "type": "Feature", "properties": { "stid": 232, "name": "Santa Maria II", "city": "Santa Maria", "county": "Santa Barbara", "elev_ft": 215, "connect_date": "2011-04-01", "disconnect_date": "2050-12-31", "stn_intvl": 1254441600.0, "active": true }, "geometry": { "type": "Point", "coordinates": [ -42441.474560624839796, -344690.899527698289603 ] } },
{ "type": "Feature", "properties": { "stid": 233, "name": "Joshua Tree", "city": "Joshua Tree", "county": "San Bernardino", "elev_ft": 2483, "connect_date": "2011-12-01", "disconnect_date": "2050-12-31", "stn_intvl": 1233360000.0, "active": true }, "geometry": { "type": "Point", "coordinates": [ 349138.686162514495663, -423868.702310288324952 ] } },
{ "type": "Feature", "properties": { "stid": 234, "name": "Newberry Springs II", "city": "Newberry Springs", "county": "San Bernardino", "elev_ft": 1930, "connect_date": "2015-02-25", "disconnect_date": "2020-11-29", "stn_intvl": 181785600.0, "active": false }, "geometry": { "type": "Point", "coordinates": [ 291331.159548634837847, -343224.299312983173877 ] } },
{ "type": "Feature", "properties": { "stid": 235, "name": "Verona", "city": "Nicolaus", "county": "Sutter", "elev_ft": 24, "connect_date": "2012-05-18", "disconnect_date": "2050-12-31", "stn_intvl": 1218758400.0, "active": true }, "geometry": { "type": "Point", "coordinates": [ -139798.76441126075224, 88069.205086959525943 ] } },
{ "type": "Feature", "properties": { "stid": 236, "name": "Macdoel II", "city": "Macdoel", "county": "Siskiyou", "elev_ft": 4265, "connect_date": "2015-04-16", "disconnect_date": "2050-12-31", "stn_intvl": 1126915200.0, "active": true }, "geometry": { "type": "Point", "coordinates": [ -166154.476710836373968, 422278.288030528463423 ] } },
{ "type": "Feature", "properties": { "stid": 237, "name": "Temecula East III", "city": "Temecula", "county": "Riverside", "elev_ft": 1530, "connect_date": "2012-11-01", "disconnect_date": "2050-12-31", "stn_intvl": 1204329600.0, "active": true }, "geometry": { "type": "Point", "coordinates": [ 274655.920663858705666, -491474.567825931124389 ] } },
{ "type": "Feature", "properties": { "stid": 238, "name": "Moreno Valley", "city": "Moreno Valley", "county": "Riverside", "elev_ft": 1604, "connect_date": "2013-04-19", "disconnect_date": "2018-04-24", "stn_intvl": 158198400.0, "active": false }, "geometry": { "type": "Point", "coordinates": [ 261741.15282014789409, -453351.86396636813879 ] } },
{ "type": "Feature", "properties": { "stid": 239, "name": "Hemet", "city": "Hemet", "county": "Riverside", "elev_ft": 1768, "connect_date": "2015-01-22", "disconnect_date": "2050-12-31", "stn_intvl": 1134172800.0, "active": true }, "geometry": { "type": "Point", "coordinates": [ 282446.009881910402328, -478811.021654277574271 ] } },
{ "type": "Feature", "properties": { "stid": 240, "name": "Perris - Menifee", "city": "Perris", "county": "Riverside", "elev_ft": 1421, "connect_date": "2013-05-25", "disconnect_date": "2050-12-31", "stn_intvl": 1186617600.0, "active": true }, "geometry": { "type": "Point", "coordinates": [ 259425.792883485148195, -468953.621078777592629 ] } },
{ "type": "Feature", "properties": { "stid": 241, "name": "San Clemente", "city": "San Clemente", "county": "Orange", "elev_ft": 224, "connect_date": "2015-07-28", "disconnect_date": "2050-12-31", "stn_intvl": 1118016000.0, "active": true }, "geometry": { "type": "Point", "coordinates": [ 224499.875650867063086, -502911.122613243293017 ] } },
{ "type": "Feature", "properties": { "stid": 242, "name": "Staten Island", "city": "Walnut Grove", "county": "San Joaquin", "elev_ft": -10, "connect_date": "2015-11-05", "disconnect_date": "2050-12-31", "stn_intvl": 1109376000.0, "active": true }, "geometry": { "type": "Point", "coordinates": [ -132100.573845493898261, 20620.89491859683767 ] } },
{ "type": "Feature", "properties": { "stid": 243, "name": "Ryde", "city": "Walnut Grove", "county": "Sacramento", "elev_ft": -10, "connect_date": "2015-12-16", "disconnect_date": "2050-12-31", "stn_intvl": 1105833600.0, "active": true }, "geometry": { "type": "Point", "coordinates": [ -135955.302330465638079, 27045.465836702845991 ] } },
{ "type": "Feature", "properties": { "stid": 244, "name": "Biggs", "city": "Biggs", "county": "Butte", "elev_ft": 72, "connect_date": "2015-06-18", "disconnect_date": "2050-12-31", "stn_intvl": 1121472000.0, "active": true }, "geometry": { "type": "Point", "coordinates": [ -157956.776909387175692, 153837.180843448266387 ] } },
{ "type": "Feature", "properties": { "stid": 245, "name": "Coto de Caza", "city": "Coto de Caza", "county": "Orange", "elev_ft": 846, "connect_date": "2015-10-07", "disconnect_date": "2050-12-31", "stn_intvl": 1111881600.0, "active": true }, "geometry": { "type": "Point", "coordinates": [ 224127.9521571091027, -485269.144572353921831 ] } },
{ "type": "Feature", "properties": { "stid": 246, "name": "Markleeville", "city": "Markleeville", "county": "Alpine", "elev_ft": 5517, "connect_date": "2014-06-13", "disconnect_date": "2050-12-31", "stn_intvl": 1153440000.0, "active": true }, "geometry": { "type": "Point", "coordinates": [ 18058.627533588372899, 84173.8594218371436 ] } },
{ "type": "Feature", "properties": { "stid": 247, "name": "Jersey Island", "city": "Oakley", "county": "Contra Costa", "elev_ft": -12, "connect_date": "2016-07-01", "disconnect_date": "2050-12-31", "stn_intvl": 1088726400.0, "active": true }, "geometry": { "type": "Point", "coordinates": [ -149121.352072358073201, 3230.06865228433162 ] } },
{ "type": "Feature", "properties": { "stid": 248, "name": "Holt", "city": "Stockton", "county": "San Joaquin", "elev_ft": -3, "connect_date": "2016-07-01", "disconnect_date": "2050-12-31", "stn_intvl": 1088726400.0, "active": true }, "geometry": { "type": "Point", "coordinates": [ -122591.178288833893021, -8467.645835163071752 ] } },
{ "type": "Feature", "properties": { "stid": 249, "name": "Ripon", "city": "Manteca", "county": "San Joaquin", "elev_ft": 20, "connect_date": "2016-07-01", "disconnect_date": "2050-12-31", "stn_intvl": 1088726400.0, "active": true }, "geometry": { "type": "Point", "coordinates": [ -111398.613791788244271, -28244.937780581880361 ] } },
{ "type": "Feature", "properties": { "stid": 250, "name": "Williams", "city": "Williams", "county": "Colusa", "elev_ft": 69, "connect_date": "2016-08-09", "disconnect_date": "2050-12-31", "stn_intvl": 1085356800.0, "active": true }, "geometry": { "type": "Point", "coordinates": [ -187112.350782047986286, 134893.381054675206542 ] } },
{ "type": "Feature", "properties": { "stid": 251, "name": "Highland", "city": "Highland", "county": "San Bernardino", "elev_ft": 1275, "connect_date": "2016-10-10", "disconnect_date": "2050-12-31", "stn_intvl": 1080000000.0, "active": true }, "geometry": { "type": "Point", "coordinates": [ 259591.44186661101412, -429885.099111467599869 ] } },
{ "type": "Feature", "properties": { "stid": 252, "name": "Soledad II", "city": "Soledad", "county": "Monterey", "elev_ft": 214, "connect_date": "2016-09-03", "disconnect_date": "2050-12-31", "stn_intvl": 1083196800.0, "active": true }, "geometry": { "type": "Point", "coordinates": [ -120328.610224264019052, -172510.849868475925177 ] } },
{ "type": "Feature", "properties": { "stid": 253, "name": "Pescadero", "city": "Pescadero", "county": "San Mateo", "elev_ft": 47, "connect_date": "2017-08-24", "disconnect_date": "2050-12-31", "stn_intvl": 1052524800.0, "active": true }, "geometry": { "type": "Point", "coordinates": [ -209962.56207047731732, -81974.953080275095999 ] } },
{ "type": "Feature", "properties": { "stid": 254, "name": "Oakland Metro", "city": "Oakland", "county": "Alameda", "elev_ft": 14, "connect_date": "2018-03-12", "disconnect_date": "2050-12-31", "stn_intvl": 1035244800.0, "active": true }, "geometry": { "type": "Point", "coordinates": [ -193390.97908598309732, -30908.83006063522771 ] } },
{ "type": "Feature", "properties": { "stid": 255, "name": "Chino", "city": "Chino", "county": "San Bernardino", "elev_ft": 637, "connect_date": "2018-03-08", "disconnect_date": "2020-08-11", "stn_intvl": 76636800.0, "active": false }, "geometry": { "type": "Point", "coordinates": [ 216519.27650503264158, -445115.881914879195392 ] } },
{ "type": "Feature", "properties": { "stid": 256, "name": "Lancaster", "city": "Lancaster", "county": "Los Angeles", "elev_ft": 2340, "connect_date": "2018-07-26", "disconnect_date": "2050-12-31", "stn_intvl": 1023494400.0, "active": true }, "geometry": { "type": "Point", "coordinates": [ 183710.26177389753866, -359945.360349380411208 ] } },
{ "type": "Feature", "properties": { "stid": 257, "name": "Ridgecrest", "city": "Ridgecrest", "county": "Kern", "elev_ft": 2234, "connect_date": "2018-10-10", "disconnect_date": "2050-12-31", "stn_intvl": 1016928000.0, "active": true }, "geometry": { "type": "Point", "coordinates": [ 213699.392367551976349, -259322.632576985750347 ] } },
{ "type": "Feature", "properties": { "stid": 258, "name": "Lemon Cove", "city": "Lemon Cove", "county": "Tulare", "elev_ft": 498, "connect_date": "2018-11-15", "disconnect_date": "2050-12-31", "stn_intvl": 1013817600.0, "active": true }, "geometry": { "type": "Point", "coordinates": [ 86197.122374329032027, -181796.155593846924603 ] } },
{ "type": "Feature", "properties": { "stid": 259, "name": "Ferndale Plain", "city": "Ferndale", "county": "Humboldt", "elev_ft": 21, "connect_date": "2019-08-05", "disconnect_date": "2050-12-30", "stn_intvl": 991008000.0, "active": true }, "geometry": { "type": "Point", "coordinates": [ -359046.336724895169027, 295627.625600080937147 ] } },
{ "type": "Feature", "properties": { "stid": 260, "name": "Montague", "city": "Montague", "county": "Siskiyou", "elev_ft": 2663, "connect_date": "2019-09-20", "disconnect_date": "2050-12-31", "stn_intvl": 987120000.0, "active": true }, "geometry": { "type": "Point", "coordinates": [ -205052.359712339268299, 422733.538495630025864 ] } },
{ "type": "Feature", "properties": { "stid": 261, "name": "Gazelle", "city": "Gazelle", "county": "Siskiyou", "elev_ft": 2743, "connect_date": "2019-09-18", "disconnect_date": "2050-12-31", "stn_intvl": 987292800.0, "active": true }, "geometry": { "type": "Point", "coordinates": [ -211565.287434130063048, 393577.751424384303391 ] } },
{ "type": "Feature", "properties": { "stid": 262, "name": "Linden", "city": "Linden", "county": "San Joaquin", "elev_ft": 111, "connect_date": "2020-02-26", "disconnect_date": "2050-12-31", "stn_intvl": 973382400.0, "active": true }, "geometry": { "type": "Point", "coordinates": [ -93905.511347875610227, 6014.230963496491313 ] } },
{ "type": "Feature", "properties": { "stid": 263, "name": "Smith River", "city": "Crescent City", "county": "Del Norte", "elev_ft": 22, "connect_date": "2020-10-07", "disconnect_date": "2050-12-31", "stn_intvl": 954028800.0, "active": true }, "geometry": { "type": "Point", "coordinates": [ -346151.623957403178792, 438347.533505422063172 ] } },
{ "type": "Feature", "properties": { "stid": 264, "name": "Sierra Valley Center", "city": "Portola", "county": "Plumas", "elev_ft": 4898, "connect_date": "2020-10-28", "disconnect_date": "2050-12-31", "stn_intvl": 952214400.0, "active": true }, "geometry": { "type": "Point", "coordinates": [ -23424.805876088390505, 195768.256156945601106 ] } },
{ "type": "Feature", "properties": { "stid": 265, "name": "Paso Robles", "city": "Paso Robles", "county": "San Luis Obispo", "elev_ft": 764, "connect_date": "2022-03-01", "disconnect_date": "2050-12-31", "stn_intvl": 909964800.0, "active": true }, "geometry": { "type": "Point", "coordinates": [ -58630.600196026978665, -258104.252383262384683 ] } },
{ "type": "Feature", "properties": { "stid": 266, "name": "Shandon", "city": "Shandon", "county": "San Luis Obispo", "elev_ft": 1105, "connect_date": "2022-08-01", "disconnect_date": "2050-12-31", "stn_intvl": 896745600.0, "active": true }, "geometry": { "type": "Point", "coordinates": [ -36476.024850994879671, -263612.548939148429781 ] } },
{ "type": "Feature", "properties": { "stid": 267, "name": "Johnstonville", "city": "Johnstonville", "county": "Lassen", "elev_ft": 4112, "connect_date": "2022-04-27", "disconnect_date": "2050-12-31", "stn_intvl": 905040000.0, "active": true }, "geometry": { "type": "Point", "coordinates": [ -47507.289478618447902, 261093.194931710138917 ] } },
{ "type": "Feature", "properties": { "stid": 268, "name": "Nubieber", "city": "Nubieber", "county": "Lassen", "elev_ft": 4122, "connect_date": "2023-11-22", "disconnect_date": "2030-12-31", "stn_intvl": 224294400.0, "active": true }, "geometry": { "type": "Point", "coordinates": [ -97984.296364608744625, 343856.910327255725861 ] } },
{ "type": "Feature", "properties": { "stid": 271, "name": "Pauma Valley", "city": "Pauma Valley", "county": "San Diego", "elev_ft": 781, "connect_date": "2025-04-07", "disconnect_date": "2050-12-31", "stn_intvl": 812073600.0, "active": true }, "geometry": { "type": "Point", "coordinates": [ 281454.39243652013829, -519343.588976887986064 ] } },
{ "type": "Feature", "properties": { "stid": 273, "name": "WildHawk", "city": "Elk Grove", "county": "Sacramento", "elev_ft": 80, "connect_date": "2024-11-01", "disconnect_date": "2050-12-31", "stn_intvl": 825638400.0, "active": true }, "geometry": { "type": "Point", "coordinates": [ -114555.307415949122515, 52302.959661367349327 ] } }
]
}
